{"type": "FeatureCollection", "features": [{"type": "Feature", "geometry": {"type": "Point", "coordinates": [13.58199, 47.399733]}, "properties": {"name": "Kraftwerk Mandling", "fuel": "Hydro", "capacity_mw": 6.0, "owner": "Verbund Hydro Power GmbH", "commissioning_year": null, "osm_id": "node/8083027595"}}, {"type": "Feature", "geometry": {"type": "Point", "coordinates": [13.185846, 47.320701]}, "properties": {"name": "Kraftwerk Plankenau", "fuel": "Hydro", "capacity_mw": 11.2, "owner": "Energie AG", "commissioning_year": null, "osm_id": "node/13103247802"}}, {"type": "Feature", "geometry": {"type": "Point", "coordinates": [14.324234, 48.299994]}, "properties": {"name": "Fernheizkraftwerk Linz-Mitte", "fuel": "Other", "capacity_mw": 251.0, "owner": "LINZ AG", "commissioning_year": 1970, "osm_id": "way/15734776"}}, {"type": "Feature", "geometry": {"type": "Point", "coordinates": [16.340262, 48.332684]}, "properties": {"name": "W\u00e4rmekraftwerk Korneuburg", "fuel": "Gas", "capacity_mw": 455.0, "owner": "EVN AG & VERBUND AG", "commissioning_year": 1958, "osm_id": "way/20821224"}}, {"type": "Feature", "geometry": {"type": "Point", "coordinates": [13.435922, 48.553128]}, "properties": {"name": "Kraftwerk Passau-Ingling", "fuel": "Hydro", "capacity_mw": 86.4, "owner": "Grenzkraftwerke GmbH", "commissioning_year": null, "osm_id": "way/27661875"}}, {"type": "Feature", "geometry": {"type": "Point", "coordinates": [16.46255, 48.199266]}, "properties": {"name": "Kraftwerk Donaustadt", "fuel": "Gas", "capacity_mw": 367.0, "owner": "Wien Energie GmbH", "commissioning_year": 1973, "osm_id": "way/27757801"}}, {"type": "Feature", "geometry": {"type": "Point", "coordinates": [13.008018, 48.244598]}, "properties": {"name": "Innkraftwerk Braunau-Simbach", "fuel": "Hydro", "capacity_mw": 100.0, "owner": "\u00d6sterreichisch-Bayerische Kraftwerke AG", "commissioning_year": null, "osm_id": "way/28599518"}}, {"type": "Feature", "geometry": {"type": "Point", "coordinates": [12.568042, 47.26224]}, "properties": {"name": "Kraftwerk Uttendorf", "fuel": "Hydro", "capacity_mw": 93.0, "owner": "\u00d6BB", "commissioning_year": null, "osm_id": "way/28620626"}}, {"type": "Feature", "geometry": {"type": "Point", "coordinates": [9.874838, 47.084492]}, "properties": {"name": "Rodundwerk II", "fuel": "Pumped Storage", "capacity_mw": 295.0, "owner": "Vorarlberger Illwerke AG", "commissioning_year": null, "osm_id": "way/30240653"}}, {"type": "Feature", "geometry": {"type": "Point", "coordinates": [14.7228, 47.174259]}, "properties": {"name": "Kraftwerk Fisching", "fuel": "Hydro", "capacity_mw": 22.0, "owner": "Verbund Hydro Power GmbH", "commissioning_year": 1995, "osm_id": "way/30380114"}}, {"type": "Feature", "geometry": {"type": "Point", "coordinates": [13.210183, 47.374837]}, "properties": {"name": "Kraftwerk Urreiting", "fuel": "Hydro", "capacity_mw": 17.0, "owner": "Salzburg AG", "commissioning_year": null, "osm_id": "way/30512216"}}, {"type": "Feature", "geometry": {"type": "Point", "coordinates": [11.756776, 47.389055]}, "properties": {"name": "Achenseekraftwerk", "fuel": "Hydro", "capacity_mw": 79.0, "owner": "TIWAG", "commissioning_year": null, "osm_id": "way/30880774"}}, {"type": "Feature", "geometry": {"type": "Point", "coordinates": [13.796261, 47.933359]}, "properties": {"name": "Kraftwerk Gmunden", "fuel": "Hydro", "capacity_mw": 12.2, "owner": "Energie AG", "commissioning_year": 1968, "osm_id": "way/31007053"}}, {"type": "Feature", "geometry": {"type": "Point", "coordinates": [15.918435, 48.323293]}, "properties": {"name": "Kraftwerk D\u00fcrnrohr", "fuel": "Other", "capacity_mw": 352.0, "owner": "VERBUND Austrian Thermal Power AG; EVN AG", "commissioning_year": null, "osm_id": "way/31289685"}}, {"type": "Feature", "geometry": {"type": "Point", "coordinates": [9.669627, 47.198885]}, "properties": {"name": "Walgaukraftwerk", "fuel": "Hydro", "capacity_mw": 94.0, "owner": "illwerke vkw", "commissioning_year": null, "osm_id": "way/31428153"}}, {"type": "Feature", "geometry": {"type": "Point", "coordinates": [14.468469, 48.09867]}, "properties": {"name": "Kraftwerk Staning", "fuel": "Hydro", "capacity_mw": 43.0, "owner": "Ennskraftwerke AG", "commissioning_year": null, "osm_id": "way/33062622"}}, {"type": "Feature", "geometry": {"type": "Point", "coordinates": [13.587431, 48.012077]}, "properties": {"name": "Kraftwerk Timelkam", "fuel": "Gas", "capacity_mw": 405.0, "owner": "Energie AG", "commissioning_year": null, "osm_id": "way/33840137"}}, {"type": "Feature", "geometry": {"type": "Point", "coordinates": [16.460123, 48.174386]}, "properties": {"name": "Sonderabfall- und Kl\u00e4rschlamm-Verbrennungsanlage Simmeringer Haide", "fuel": "Waste", "capacity_mw": 9.0, "owner": "Wien Energie GmbH", "commissioning_year": null, "osm_id": "way/34202023"}}, {"type": "Feature", "geometry": {"type": "Point", "coordinates": [16.461091, 48.176625]}, "properties": {"name": "M\u00fcllverbrennungsanlage Pfaffenau / Biogas Wien", "fuel": "Waste", "capacity_mw": 14.0, "owner": "Wiener Kommunal-Umweltschutzprojektgesellschaft m.b.H.", "commissioning_year": 2008, "osm_id": "way/34202024"}}, {"type": "Feature", "geometry": {"type": "Point", "coordinates": [15.332443, 48.592343]}, "properties": {"name": "Pumpspeicherkraftwerk Ottenstein", "fuel": "Hydro", "capacity_mw": 48.0, "owner": "EVN", "commissioning_year": 1957, "osm_id": "way/39596992"}}, {"type": "Feature", "geometry": {"type": "Point", "coordinates": [15.709696, 48.394982]}, "properties": {"name": "Kraftwerk Thei\u00df", "fuel": "Gas", "capacity_mw": 800.0, "owner": "EVN", "commissioning_year": null, "osm_id": "way/47001764"}}, {"type": "Feature", "geometry": {"type": "Point", "coordinates": [13.038214, 47.809436]}, "properties": {"name": "Heizkraftwerk Salzburg Mitte", "fuel": "Gas", "capacity_mw": 84.0, "owner": "Salzburg AG", "commissioning_year": 1955, "osm_id": "way/56126690"}}, {"type": "Feature", "geometry": {"type": "Point", "coordinates": [14.223489, 48.206174]}, "properties": {"name": "Kraftwerk Traun-Pucking", "fuel": "Hydro", "capacity_mw": 45.8, "owner": "Energie AG Ober\u00f6sterreich", "commissioning_year": 1983, "osm_id": "way/61015936"}}, {"type": "Feature", "geometry": {"type": "Point", "coordinates": [16.297943, 48.084728]}, "properties": {"name": "Biomasseheizkraftwerk M\u00f6dling", "fuel": "Biomass", "capacity_mw": 5.0, "owner": "EVN", "commissioning_year": null, "osm_id": "way/62295861"}}, {"type": "Feature", "geometry": {"type": "Point", "coordinates": [15.288203, 47.852406]}, "properties": {"name": "Kraftwerk Wienerbruck", "fuel": "Hydro", "capacity_mw": 7.8, "owner": "EVN", "commissioning_year": 1910, "osm_id": "way/72230496"}}, {"type": "Feature", "geometry": {"type": "Point", "coordinates": [13.632547, 47.608277]}, "properties": {"name": "Kraftwerk Steeg", "fuel": "Hydro", "capacity_mw": 13.3, "owner": "Energie AG", "commissioning_year": 1910, "osm_id": "way/80517917"}}, {"type": "Feature", "geometry": {"type": "Point", "coordinates": [10.744924, 47.450344]}, "properties": {"name": "Kraftwerk Heiterwang", "fuel": "Hydro", "capacity_mw": 8.0, "owner": "Elektrizit\u00e4tswerke Reutte", "commissioning_year": 1903, "osm_id": "way/81550197"}}, {"type": "Feature", "geometry": {"type": "Point", "coordinates": [10.751349, 47.493197]}, "properties": {"name": "Kraftwerk Plansee", "fuel": "Hydro", "capacity_mw": 17.8, "owner": "Elektrizit\u00e4tswerke Reutte", "commissioning_year": 1903, "osm_id": "way/81626041"}}, {"type": "Feature", "geometry": {"type": "Point", "coordinates": [12.198847, 47.641323]}, "properties": {"name": "Wasserkraftwerk Oberaudorf-Ebbs", "fuel": "Hydro", "capacity_mw": 59.0, "owner": "\u00d6sterreichisch-Bayerische Kraftwerke AG", "commissioning_year": null, "osm_id": "way/83231884"}}, {"type": "Feature", "geometry": {"type": "Point", "coordinates": [15.855658, 48.374552]}, "properties": {"name": "Kraftwerk Altenw\u00f6rth", "fuel": "Hydro", "capacity_mw": 328.0, "owner": "Verbund Hydro Power GmbH", "commissioning_year": 1976, "osm_id": "way/83615732"}}, {"type": "Feature", "geometry": {"type": "Point", "coordinates": [13.329342, 46.870639]}, "properties": {"name": "Malta Hauptstufe", "fuel": "Pumped Storage", "capacity_mw": 730.0, "owner": "Verbund Hydro Power GmbH", "commissioning_year": 1979, "osm_id": "way/83805041"}}, {"type": "Feature", "geometry": {"type": "Point", "coordinates": [13.360178, 46.833246]}, "properties": {"name": "Malta Unterstufe", "fuel": "Hydro", "capacity_mw": 41.0, "owner": "Verbund Hydro Power GmbH", "commissioning_year": 1979, "osm_id": "way/83892419"}}, {"type": "Feature", "geometry": {"type": "Point", "coordinates": [15.095084, 47.388632]}, "properties": {"name": "Wasserkraftwerk Leoben", "fuel": "Hydro", "capacity_mw": 10.0, "owner": "Verbund Hydro Power GmbH", "commissioning_year": null, "osm_id": "way/84505849"}}, {"type": "Feature", "geometry": {"type": "Point", "coordinates": [10.053588, 46.927598]}, "properties": {"name": "Obervermuntwerk 1", "fuel": "Pumped Storage", "capacity_mw": 29.0, "owner": "illwerke vkw", "commissioning_year": 1943, "osm_id": "way/85800534"}}, {"type": "Feature", "geometry": {"type": "Point", "coordinates": [13.071696, 46.867392]}, "properties": {"name": "Kraftwerk W\u00f6lla", "fuel": "Hydro", "capacity_mw": 18.0, "owner": "KELAG", "commissioning_year": null, "osm_id": "way/86276232"}}, {"type": "Feature", "geometry": {"type": "Point", "coordinates": [12.95719, 46.995457]}, "properties": {"name": "Kraftwerk Zirknitz", "fuel": "Hydro", "capacity_mw": 32.0, "owner": "KELAG", "commissioning_year": 1973, "osm_id": "way/86299764"}}, {"type": "Feature", "geometry": {"type": "Point", "coordinates": [16.261614, 47.992354]}, "properties": {"name": "Biomasseheizkraftwerk Baden", "fuel": "Biomass", "capacity_mw": 5.0, "owner": "EVN", "commissioning_year": null, "osm_id": "way/86991790"}}, {"type": "Feature", "geometry": {"type": "Point", "coordinates": [13.092276, 46.933817]}, "properties": {"name": "Kraftwerk G\u00f6\u00dfnitz", "fuel": "Hydro", "capacity_mw": 8.0, "owner": "KELAG", "commissioning_year": 1965, "osm_id": "way/89027365"}}, {"type": "Feature", "geometry": {"type": "Point", "coordinates": [13.210582, 47.441281]}, "properties": {"name": "Kraftwerk Kreuzbergmaut", "fuel": "Hydro", "capacity_mw": 18.0, "owner": "Salzburg AG", "commissioning_year": null, "osm_id": "way/90197334"}}, {"type": "Feature", "geometry": {"type": "Point", "coordinates": [13.05215, 46.977269]}, "properties": {"name": "Kraftwerk Innerfragant", "fuel": "Pumped Storage", "capacity_mw": 178.0, "owner": "KELAG", "commissioning_year": 1968, "osm_id": "way/91964304"}}, {"type": "Feature", "geometry": {"type": "Point", "coordinates": [14.02294, 48.385126]}, "properties": {"name": "Kraftwerk Aschach", "fuel": "Hydro", "capacity_mw": 324.0, "owner": "Verbund Hydro Power GmbH", "commissioning_year": 1964, "osm_id": "way/92873348"}}, {"type": "Feature", "geometry": {"type": "Point", "coordinates": [12.608423, 47.197336]}, "properties": {"name": "Kraftwerk Schneiderau", "fuel": "Hydro", "capacity_mw": 35.0, "owner": "\u00d6BB", "commissioning_year": null, "osm_id": "way/94149217"}}, {"type": "Feature", "geometry": {"type": "Point", "coordinates": [12.626602, 47.169556]}, "properties": {"name": "Kraftwerk Enzingerboden", "fuel": "Hydro", "capacity_mw": 81.0, "owner": "\u00d6BB", "commissioning_year": null, "osm_id": "way/94208758"}}, {"type": "Feature", "geometry": {"type": "Point", "coordinates": [14.530811, 48.224837]}, "properties": {"name": "Wasserkraftwerk St. Pantaleon-Erla", "fuel": "Hydro", "capacity_mw": 51.0, "owner": "Ennskraftwerke AG", "commissioning_year": null, "osm_id": "way/95828353"}}, {"type": "Feature", "geometry": {"type": "Point", "coordinates": [15.336543, 47.186377]}, "properties": {"name": "Kraftwerk Friesach", "fuel": "Hydro", "capacity_mw": 12.0, "owner": "Verbund Hydro Power GmbH", "commissioning_year": null, "osm_id": "way/96176849"}}, {"type": "Feature", "geometry": {"type": "Point", "coordinates": [13.986022, 48.433467]}, "properties": {"name": "Kraftwerk Partenstein", "fuel": "Hydro", "capacity_mw": 33.8, "owner": "Energie AG", "commissioning_year": 1924, "osm_id": "way/96250617"}}, {"type": "Feature", "geometry": {"type": "Point", "coordinates": [15.334004, 47.365041]}, "properties": {"name": "Kraftwerk Pernegg", "fuel": "Hydro", "capacity_mw": 26.0, "owner": "Verbund Hydro Power GmbH", "commissioning_year": null, "osm_id": "way/97097992"}}, {"type": "Feature", "geometry": {"type": "Point", "coordinates": [13.751656, 48.489885]}, "properties": {"name": "Kraftwerk Ranna", "fuel": "Hydro", "capacity_mw": 19.0, "owner": "Energie AG", "commissioning_year": null, "osm_id": "way/97989146"}}, {"type": "Feature", "geometry": {"type": "Point", "coordinates": [12.230017, 47.243971]}, "properties": {"name": "Kraftwerk Wald", "fuel": "Hydro", "capacity_mw": 23.5, "owner": "Salzburg AG", "commissioning_year": 1988, "osm_id": "way/98429378"}}, {"type": "Feature", "geometry": {"type": "Point", "coordinates": [11.832799, 47.15182]}, "properties": {"name": "Kraftwerk B\u00f6sdornau", "fuel": "Hydro", "capacity_mw": 25.0, "owner": "Verbund Hydro Power GmbH", "commissioning_year": null, "osm_id": "way/99858973"}}, {"type": "Feature", "geometry": {"type": "Point", "coordinates": [15.584888, 46.785106]}, "properties": {"name": "Kraftwerk Gabersdorf", "fuel": "Hydro", "capacity_mw": 15.0, "owner": "Verbund Hydro Power GmbH", "commissioning_year": null, "osm_id": "way/103776186"}}, {"type": "Feature", "geometry": {"type": "Point", "coordinates": [12.087993, 47.515719]}, "properties": {"name": "Kraftwerk Kirchbichl", "fuel": "Hydro", "capacity_mw": 37.2, "owner": "Tiroler Wasserkraft AG", "commissioning_year": 1941, "osm_id": "way/105080865"}}, {"type": "Feature", "geometry": {"type": "Point", "coordinates": [12.058092, 47.235377]}, "properties": {"name": "Kraftwerk Funsingau", "fuel": "Hydro", "capacity_mw": 25.0, "owner": "Verbund Hydro Power GmbH", "commissioning_year": null, "osm_id": "way/106512774"}}, {"type": "Feature", "geometry": {"type": "Point", "coordinates": [12.719298, 47.197114]}, "properties": {"name": "Kraftwerk Kaprun Oberstufe Limberg (1)", "fuel": "Pumped Storage", "capacity_mw": 160.0, "owner": "Verbund Hydro Power GmbH", "commissioning_year": null, "osm_id": "way/113292920"}}, {"type": "Feature", "geometry": {"type": "Point", "coordinates": [15.44327, 48.589287]}, "properties": {"name": "Speicherkraftwerk Dobra-Krumau", "fuel": "Hydro", "capacity_mw": 16.2, "owner": "EVN", "commissioning_year": null, "osm_id": "way/113597105"}}, {"type": "Feature", "geometry": {"type": "Point", "coordinates": [13.185818, 47.320759]}, "properties": {"name": "", "fuel": "Hydro", "capacity_mw": 11.2, "owner": "Energie AG", "commissioning_year": null, "osm_id": "way/115251195"}}, {"type": "Feature", "geometry": {"type": "Point", "coordinates": [14.74293, 47.605812]}, "properties": {"name": "Kraftwerk Hieflau", "fuel": "Hydro", "capacity_mw": 63.0, "owner": "Verbund Hydro Power GmbH", "commissioning_year": 1956, "osm_id": "way/115816841"}}, {"type": "Feature", "geometry": {"type": "Point", "coordinates": [13.174444, 47.321533]}, "properties": {"name": "Kraftwerk St. Veit", "fuel": "Hydro", "capacity_mw": 17.0, "owner": "Verbund Hydro Power GmbH", "commissioning_year": null, "osm_id": "way/116188135"}}, {"type": "Feature", "geometry": {"type": "Point", "coordinates": [12.435802, 46.755841]}, "properties": {"name": "Kraftwerk Panzendorf", "fuel": "Hydro", "capacity_mw": 8.0, "owner": "", "commissioning_year": null, "osm_id": "way/116741735"}}, {"type": "Feature", "geometry": {"type": "Point", "coordinates": [13.197423, 47.338617]}, "properties": {"name": "Kraftwerk St. Johann", "fuel": "Hydro", "capacity_mw": 17.0, "owner": "Salzburg AG", "commissioning_year": null, "osm_id": "way/117535095"}}, {"type": "Feature", "geometry": {"type": "Point", "coordinates": [14.689269, 47.703499]}, "properties": {"name": "Kraftwerk Krippau", "fuel": "Hydro", "capacity_mw": 30.0, "owner": "Verbund Hydro Power GmbH", "commissioning_year": null, "osm_id": "way/118134590"}}, {"type": "Feature", "geometry": {"type": "Point", "coordinates": [14.652905, 47.738116]}, "properties": {"name": "Kraftwerk Altenmarkt", "fuel": "Hydro", "capacity_mw": 25.7, "owner": "Verbund Hydro Power GmbH", "commissioning_year": null, "osm_id": "way/118135035"}}, {"type": "Feature", "geometry": {"type": "Point", "coordinates": [13.956933, 47.491122]}, "properties": {"name": "Krafthaus Salza", "fuel": "Hydro", "capacity_mw": 9.0, "owner": "Verbund Hydro Power GmbH", "commissioning_year": null, "osm_id": "way/118485994"}}, {"type": "Feature", "geometry": {"type": "Point", "coordinates": [11.652461, 47.339538]}, "properties": {"name": "Kraftwerk Vomperbach Oberstufe", "fuel": "Hydro", "capacity_mw": 7.2, "owner": "Stadtwerke Schwaz", "commissioning_year": 1897, "osm_id": "way/121701528"}}, {"type": "Feature", "geometry": {"type": "Point", "coordinates": [9.875277, 47.074899]}, "properties": {"name": "Latschauwerk", "fuel": "Hydro", "capacity_mw": 9.0, "owner": "illwerke vkw", "commissioning_year": null, "osm_id": "way/121904324"}}, {"type": "Feature", "geometry": {"type": "Point", "coordinates": [9.873891, 47.073905]}, "properties": {"name": "L\u00fcnerseewerk", "fuel": "Pumped Storage", "capacity_mw": 232.0, "owner": "illwerke vkw", "commissioning_year": null, "osm_id": "way/121904339"}}, {"type": "Feature", "geometry": {"type": "Point", "coordinates": [9.881493, 47.085033]}, "properties": {"name": "Rodundwerk I", "fuel": "Pumped Storage", "capacity_mw": 198.0, "owner": "Vorarlberger Illwerke AG", "commissioning_year": null, "osm_id": "way/122134168"}}, {"type": "Feature", "geometry": {"type": "Point", "coordinates": [14.829831, 47.890455]}, "properties": {"name": "Wasserkraftwerk Opponitz", "fuel": "Hydro", "capacity_mw": 12.62, "owner": "Wien Energie", "commissioning_year": 1924, "osm_id": "way/122776766"}}, {"type": "Feature", "geometry": {"type": "Point", "coordinates": [14.479549, 46.56128]}, "properties": {"name": "Annabr\u00fccke", "fuel": "Hydro", "capacity_mw": 90.0, "owner": "Verbund Hydro Power GmbH", "commissioning_year": 1981, "osm_id": "way/122820367"}}, {"type": "Feature", "geometry": {"type": "Point", "coordinates": [14.026868, 46.569651]}, "properties": {"name": "Kraftwerk Rosegg-St. Jakob", "fuel": "Hydro", "capacity_mw": 80.0, "owner": "Verbund Hydro Power GmbH", "commissioning_year": 1974, "osm_id": "way/123588260"}}, {"type": "Feature", "geometry": {"type": "Point", "coordinates": [14.347505, 48.267579]}, "properties": {"name": "Fernheizkraftwerk Linz-S\u00fcd", "fuel": "Gas", "capacity_mw": 172.0, "owner": "LINZ AG", "commissioning_year": 1993, "osm_id": "way/123754668"}}, {"type": "Feature", "geometry": {"type": "Point", "coordinates": [10.063908, 47.129078]}, "properties": {"name": "Kraftwerk Kl\u00f6sterle", "fuel": "Hydro", "capacity_mw": 16.0, "owner": "Vorarlberger Kraftwerke AG", "commissioning_year": 1997, "osm_id": "way/126215500"}}, {"type": "Feature", "geometry": {"type": "Point", "coordinates": [9.915446, 47.066673]}, "properties": {"name": "Kraftwerk Unterstufe Gampadels", "fuel": "Hydro", "capacity_mw": 9.9, "owner": "illwerke vkw", "commissioning_year": null, "osm_id": "way/127731643"}}, {"type": "Feature", "geometry": {"type": "Point", "coordinates": [9.876971, 47.403134]}, "properties": {"name": "Kraftwerk Andelsbuch", "fuel": "Hydro", "capacity_mw": 15.1, "owner": "illwerke vkw", "commissioning_year": null, "osm_id": "way/128747733"}}, {"type": "Feature", "geometry": {"type": "Point", "coordinates": [9.859814, 47.470395]}, "properties": {"name": "Kraftwerk Alberschwende", "fuel": "Hydro", "capacity_mw": 30.0, "owner": "illwerke vkw", "commissioning_year": 1992, "osm_id": "way/128754334"}}, {"type": "Feature", "geometry": {"type": "Point", "coordinates": [9.864114, 47.470207]}, "properties": {"name": "Kraftwerk Langenegg", "fuel": "Hydro", "capacity_mw": 74.0, "owner": "illwerke vkw", "commissioning_year": 1979, "osm_id": "way/128754335"}}, {"type": "Feature", "geometry": {"type": "Point", "coordinates": [15.33581, 47.208353]}, "properties": {"name": "Kraftwerk Peggau-Deutschfeistritz", "fuel": "Hydro", "capacity_mw": 13.2, "owner": "Verbund AG", "commissioning_year": null, "osm_id": "way/129648526"}}, {"type": "Feature", "geometry": {"type": "Point", "coordinates": [14.157285, 47.828293]}, "properties": {"name": "Kraftwerk Klaus", "fuel": "Hydro", "capacity_mw": 20.0, "owner": "Ennskraftwerke AG", "commissioning_year": null, "osm_id": "way/130873896"}}, {"type": "Feature", "geometry": {"type": "Point", "coordinates": [14.319781, 48.249918]}, "properties": {"name": "Kleinwasserkraftwerk Kleinm\u00fcnchen", "fuel": "Hydro", "capacity_mw": 10.0, "owner": "LINZ AG", "commissioning_year": 1978, "osm_id": "way/136179989"}}, {"type": "Feature", "geometry": {"type": "Point", "coordinates": [16.434594, 48.182564]}, "properties": {"name": "Kraftwerk Simmering", "fuel": "Other", "capacity_mw": 1154.7, "owner": "Wien Energie", "commissioning_year": 1902, "osm_id": "way/138406969"}}, {"type": "Feature", "geometry": {"type": "Point", "coordinates": [13.209861, 47.377741]}, "properties": {"name": "Kraftwerk Arthurwerk", "fuel": "Hydro", "capacity_mw": 6.0, "owner": "Energie AG", "commissioning_year": 1928, "osm_id": "way/140644903"}}, {"type": "Feature", "geometry": {"type": "Point", "coordinates": [11.850544, 47.158145]}, "properties": {"name": "Kraftwerk Mayrhofen", "fuel": "Hydro", "capacity_mw": 355.0, "owner": "Verbund Hydro Power GmbH", "commissioning_year": null, "osm_id": "way/141092144"}}, {"type": "Feature", "geometry": {"type": "Point", "coordinates": [16.251881, 47.834763]}, "properties": {"name": "Heizwerk Civitas Nova Wiener Neustadt", "fuel": "Biomass", "capacity_mw": 10.0, "owner": "EVN W\u00e4rme;FWG Krumbach", "commissioning_year": 1999, "osm_id": "way/143199246"}}, {"type": "Feature", "geometry": {"type": "Point", "coordinates": [13.814182, 47.980757]}, "properties": {"name": "Thermisches Kraftwerk Laakirchen CMO\u00d6", "fuel": "Gas", "capacity_mw": 61.0, "owner": "Energie AG", "commissioning_year": null, "osm_id": "way/146016366"}}, {"type": "Feature", "geometry": {"type": "Point", "coordinates": [11.391556, 47.199856]}, "properties": {"name": "Ruetzkraftwerk", "fuel": "Hydro", "capacity_mw": 6.0, "owner": "IKB AG", "commissioning_year": 1997, "osm_id": "way/146122250"}}, {"type": "Feature", "geometry": {"type": "Point", "coordinates": [14.37691, 47.992841]}, "properties": {"name": "Kraftwerk Rosenau", "fuel": "Hydro", "capacity_mw": 34.0, "owner": "Ennskraftwerke AG", "commissioning_year": 1953, "osm_id": "way/152183126"}}, {"type": "Feature", "geometry": {"type": "Point", "coordinates": [14.482875, 46.559378]}, "properties": {"name": "Kraftwerk Freibach", "fuel": "Hydro", "capacity_mw": 16.4, "owner": "KELAG", "commissioning_year": 1958, "osm_id": "way/152205880"}}, {"type": "Feature", "geometry": {"type": "Point", "coordinates": [15.566062, 46.828063]}, "properties": {"name": "Kraftwerk Gralla", "fuel": "Hydro", "capacity_mw": 15.0, "owner": "Verbund Hydro Power GmbH", "commissioning_year": null, "osm_id": "way/152304106"}}, {"type": "Feature", "geometry": {"type": "Point", "coordinates": [15.571724, 46.745725]}, "properties": {"name": "Kraftwerk Obervogau", "fuel": "Hydro", "capacity_mw": 13.0, "owner": "Verbund Hydro Power GmbH", "commissioning_year": null, "osm_id": "way/152305012"}}, {"type": "Feature", "geometry": {"type": "Point", "coordinates": [15.621151, 46.716466]}, "properties": {"name": "Kraftwerk Spielfeld", "fuel": "Hydro", "capacity_mw": 13.0, "owner": "Verbund Hydro Power GmbH", "commissioning_year": null, "osm_id": "way/152306474"}}, {"type": "Feature", "geometry": {"type": "Point", "coordinates": [12.577211, 46.928635]}, "properties": {"name": "Kraftwerk Schwarzach", "fuel": "Hydro", "capacity_mw": 9.9, "owner": "TIWAG", "commissioning_year": 2007, "osm_id": "way/152469117"}}, {"type": "Feature", "geometry": {"type": "Point", "coordinates": [14.065363, 47.107758]}, "properties": {"name": "Kraftwerk Bodendorf-Mur", "fuel": "Hydro", "capacity_mw": 7.0, "owner": "Verbund Hydro Power GmbH", "commissioning_year": 1982, "osm_id": "way/153223717"}}, {"type": "Feature", "geometry": {"type": "Point", "coordinates": [11.005479, 47.207657]}, "properties": {"name": "Kraftwerk K\u00fchtai", "fuel": "Pumped Storage", "capacity_mw": 289.0, "owner": "TIWAG", "commissioning_year": 1981, "osm_id": "way/156083802"}}, {"type": "Feature", "geometry": {"type": "Point", "coordinates": [10.967645, 47.269541]}, "properties": {"name": "Kraftwerk Silz", "fuel": "Hydro", "capacity_mw": 500.0, "owner": "TIWAG", "commissioning_year": 1981, "osm_id": "way/156316489"}}, {"type": "Feature", "geometry": {"type": "Point", "coordinates": [11.899325, 47.233598]}, "properties": {"name": "Kraftwerk Gerlos", "fuel": "Hydro", "capacity_mw": 200.0, "owner": "Verbund Hydro Power GmbH", "commissioning_year": null, "osm_id": "way/156973415"}}, {"type": "Feature", "geometry": {"type": "Point", "coordinates": [15.343223, 48.572924]}, "properties": {"name": "Holzkraftwerk Rastenfeld", "fuel": "Biomass", "capacity_mw": 5.0, "owner": "Nawaro", "commissioning_year": null, "osm_id": "way/160080683"}}, {"type": "Feature", "geometry": {"type": "Point", "coordinates": [15.468153, 46.997937]}, "properties": {"name": "Kraftwerk G\u00f6ssendorf", "fuel": "Hydro", "capacity_mw": 19.0, "owner": "Verbund Hydro Power GmbH", "commissioning_year": null, "osm_id": "way/161423652"}}, {"type": "Feature", "geometry": {"type": "Point", "coordinates": [16.783752, 48.548312]}, "properties": {"name": "M\u00fcllverbrennungsanlage Zistersdorf", "fuel": "Waste", "capacity_mw": 15.0, "owner": "FCC Zistersdorf Abfall Service GmbH", "commissioning_year": null, "osm_id": "way/162276189"}}, {"type": "Feature", "geometry": {"type": "Point", "coordinates": [13.139678, 47.315424]}, "properties": {"name": "Flusskraftwerk Schwarzach", "fuel": "Hydro", "capacity_mw": 138.0, "owner": "Verbund Hydro Power GmbH", "commissioning_year": null, "osm_id": "way/162585233"}}, {"type": "Feature", "geometry": {"type": "Point", "coordinates": [12.749736, 46.801534]}, "properties": {"name": "KW Amlach", "fuel": "Hydro", "capacity_mw": 60.0, "owner": "TIWAG", "commissioning_year": null, "osm_id": "way/163096581"}}, {"type": "Feature", "geometry": {"type": "Point", "coordinates": [15.485485, 46.911331]}, "properties": {"name": "Kraftwerk Mellach", "fuel": "Hydro", "capacity_mw": 16.0, "owner": "Verbund Hydro Power GmbH", "commissioning_year": null, "osm_id": "way/167350182"}}, {"type": "Feature", "geometry": {"type": "Point", "coordinates": [14.872742, 46.657974]}, "properties": {"name": "Kraftwerk Schwabeck", "fuel": "Hydro", "capacity_mw": 79.0, "owner": "Verbund Hydro Power GmbH", "commissioning_year": 1943, "osm_id": "way/169522435"}}, {"type": "Feature", "geometry": {"type": "Point", "coordinates": [16.279336, 48.72887]}, "properties": {"name": "", "fuel": "Solar", "capacity_mw": 56.0, "owner": "Jungbunzlauer Austria AG", "commissioning_year": 2024, "osm_id": "way/171371180"}}, {"type": "Feature", "geometry": {"type": "Point", "coordinates": [15.21417, 47.410379]}, "properties": {"name": "Kraftwerk Dionysen", "fuel": "Hydro", "capacity_mw": 16.0, "owner": "Verbund Hydro Power GmbH", "commissioning_year": null, "osm_id": "way/173058876"}}, {"type": "Feature", "geometry": {"type": "Point", "coordinates": [13.194029, 47.470733]}, "properties": {"name": "Wasserkraftwerk Werfen", "fuel": "Hydro", "capacity_mw": 16.0, "owner": "Salzburg AG", "commissioning_year": null, "osm_id": "way/173563559"}}, {"type": "Feature", "geometry": {"type": "Point", "coordinates": [13.352735, 47.065867]}, "properties": {"name": "Malta Oberstufe", "fuel": "Pumped Storage", "capacity_mw": 120.0, "owner": "Austrian Hydro Power AG", "commissioning_year": null, "osm_id": "way/176377270"}}, {"type": "Feature", "geometry": {"type": "Point", "coordinates": [13.645296, 46.720917]}, "properties": {"name": "Paternion", "fuel": "Hydro", "capacity_mw": 24.0, "owner": "Verbund Hydro Power GmbH", "commissioning_year": 1988, "osm_id": "way/180934814"}}, {"type": "Feature", "geometry": {"type": "Point", "coordinates": [13.220546, 47.407073]}, "properties": {"name": "Kraftwerk Bischofshofen", "fuel": "Hydro", "capacity_mw": 16.0, "owner": "Salzburg AG", "commissioning_year": null, "osm_id": "way/183618239"}}, {"type": "Feature", "geometry": {"type": "Point", "coordinates": [14.955977, 46.633951]}, "properties": {"name": "Kraftwerk Koralpe", "fuel": "Pumped Storage", "capacity_mw": 50.0, "owner": "KELAG", "commissioning_year": 1991, "osm_id": "way/200307418"}}, {"type": "Feature", "geometry": {"type": "Point", "coordinates": [10.042579, 46.974918]}, "properties": {"name": "Rifawerk", "fuel": "Pumped Storage", "capacity_mw": 7.0, "owner": "illwerke vkw", "commissioning_year": null, "osm_id": "way/206376438"}}, {"type": "Feature", "geometry": {"type": "Point", "coordinates": [9.737467, 47.182609]}, "properties": {"name": "Kraftwerk Unterstufe Lutz", "fuel": "Hydro", "capacity_mw": 8.6, "owner": "Vorarlberger Kraftwerke AG", "commissioning_year": 1959, "osm_id": "way/206451383"}}, {"type": "Feature", "geometry": {"type": "Point", "coordinates": [9.788191, 47.20485]}, "properties": {"name": "Kraftwerk Oberstufe Lutz", "fuel": "Hydro", "capacity_mw": 19.3, "owner": "Vorarlberger Kraftwerke AG", "commissioning_year": 1967, "osm_id": "way/206452806"}}, {"type": "Feature", "geometry": {"type": "Point", "coordinates": [14.499997, 48.223013]}, "properties": {"name": "Biomasseheizkraftwerk Ennsdorf", "fuel": "Biomass", "capacity_mw": 5.0, "owner": "GEM - Gesellschaft f\u00fcr Energieversorgung und -management mbH", "commissioning_year": null, "osm_id": "way/206535083"}}, {"type": "Feature", "geometry": {"type": "Point", "coordinates": [13.593601, 46.739399]}, "properties": {"name": "Kraftwerk Kamering", "fuel": "Hydro", "capacity_mw": 9.9, "owner": "KELAG", "commissioning_year": 1952, "osm_id": "way/218584035"}}, {"type": "Feature", "geometry": {"type": "Point", "coordinates": [15.50409, 46.943533]}, "properties": {"name": "Kraftwerk Kalsdorf", "fuel": "Hydro", "capacity_mw": 19.0, "owner": "Verbund Hydro Power GmbH", "commissioning_year": 2013, "osm_id": "way/226685554"}}, {"type": "Feature", "geometry": {"type": "Point", "coordinates": [15.159978, 47.018329]}, "properties": {"name": "Kraftwerk Arnstein", "fuel": "Hydro", "capacity_mw": 30.0, "owner": "Verbund Hydro Power GmbH", "commissioning_year": 1925, "osm_id": "way/229192640"}}, {"type": "Feature", "geometry": {"type": "Point", "coordinates": [14.08654, 47.104445]}, "properties": {"name": "Kraftwerk St. Georgen", "fuel": "Hydro", "capacity_mw": 6.0, "owner": "Verbund Hydro Power GmbH", "commissioning_year": 1985, "osm_id": "way/229420376"}}, {"type": "Feature", "geometry": {"type": "Point", "coordinates": [10.217522, 47.099415]}, "properties": {"name": "Kraftwerk Kartell", "fuel": "Hydro", "capacity_mw": 8.0, "owner": "EWA-Energie- und Wirtschaftsbetriebe der Gemeinde St. Anton GmbH", "commissioning_year": null, "osm_id": "way/230130133"}}, {"type": "Feature", "geometry": {"type": "Point", "coordinates": [15.310207, 47.250842]}, "properties": {"name": "Kraftwerk Rabenstein", "fuel": "Hydro", "capacity_mw": 14.0, "owner": "Verbund Hydro Power GmbH", "commissioning_year": null, "osm_id": "way/234420432"}}, {"type": "Feature", "geometry": {"type": "Point", "coordinates": [15.392096, 47.108591]}, "properties": {"name": "Kraftwerk Weinz\u00f6dl", "fuel": "Hydro", "capacity_mw": 19.0, "owner": "Verbund Hydro Power GmbH", "commissioning_year": 1982, "osm_id": "way/234674337"}}, {"type": "Feature", "geometry": {"type": "Point", "coordinates": [13.160516, 48.290008]}, "properties": {"name": "Wasserkraftwerk Ering-Frauenstein", "fuel": "Hydro", "capacity_mw": 72.9, "owner": "E.ON Wasserkraft", "commissioning_year": null, "osm_id": "way/242193001"}}, {"type": "Feature", "geometry": {"type": "Point", "coordinates": [13.758483, 46.560137]}, "properties": {"name": "Kraftwerk Sch\u00fctt 2", "fuel": "Hydro", "capacity_mw": 10.0, "owner": "KELAG", "commissioning_year": 1962, "osm_id": "way/242606817"}}, {"type": "Feature", "geometry": {"type": "Point", "coordinates": [14.411846, 48.017943]}, "properties": {"name": "Kraftwerk Garsten-St. Ulrich", "fuel": "Hydro", "capacity_mw": 38.0, "owner": "Ennskraftwerke AG", "commissioning_year": null, "osm_id": "way/259327210"}}, {"type": "Feature", "geometry": {"type": "Point", "coordinates": [13.829155, 46.632864]}, "properties": {"name": "Kraftwerk Villach", "fuel": "Hydro", "capacity_mw": 25.0, "owner": "Verbund Hydro Power GmbH", "commissioning_year": 1984, "osm_id": "way/264480024"}}, {"type": "Feature", "geometry": {"type": "Point", "coordinates": [14.5122, 47.893023]}, "properties": {"name": "Wasserkraftwerk Grossraming", "fuel": "Hydro", "capacity_mw": 72.0, "owner": "Ennskraftwerke AG", "commissioning_year": null, "osm_id": "way/266583793"}}, {"type": "Feature", "geometry": {"type": "Point", "coordinates": [10.054626, 47.132809]}, "properties": {"name": "Kraftwerk Spullersee", "fuel": "Hydro", "capacity_mw": 36.0, "owner": "\u00d6BB", "commissioning_year": null, "osm_id": "way/266746972"}}, {"type": "Feature", "geometry": {"type": "Point", "coordinates": [13.183354, 47.761465]}, "properties": {"name": "Wasserkraftwerk Strubklamm", "fuel": "Hydro", "capacity_mw": 15.0, "owner": "Salzburg AG", "commissioning_year": null, "osm_id": "way/267116236"}}, {"type": "Feature", "geometry": {"type": "Point", "coordinates": [14.313744, 46.603887]}, "properties": {"name": "Biomasse-Kraftwerk S\u00fcd", "fuel": "Biomass", "capacity_mw": 5.0, "owner": "Bioenergiezentrum GmbH", "commissioning_year": null, "osm_id": "way/279109844"}}, {"type": "Feature", "geometry": {"type": "Point", "coordinates": [13.311757, 46.872833]}, "properties": {"name": "Rei\u00dfeck-Kreuzeck", "fuel": "Hydro", "capacity_mw": 138.0, "owner": "Verbund Hydro Power GmbH", "commissioning_year": 1950, "osm_id": "way/293434346"}}, {"type": "Feature", "geometry": {"type": "Point", "coordinates": [12.424879, 47.278401]}, "properties": {"name": "Kraftwerk Hollersbach", "fuel": "Hydro", "capacity_mw": 5.2, "owner": "Salzburg AG", "commissioning_year": 2010, "osm_id": "way/294212983"}}, {"type": "Feature", "geometry": {"type": "Point", "coordinates": [10.662411, 47.06196]}, "properties": {"name": "Gemeinschaftskraftwerk Inn", "fuel": "Hydro", "capacity_mw": 89.0, "owner": "Engadiner Kraftwerk AG, TIWAG, Verbund AG", "commissioning_year": null, "osm_id": "way/312264489"}}, {"type": "Feature", "geometry": {"type": "Point", "coordinates": [14.75007, 47.650714]}, "properties": {"name": "Kraftwerk Landl", "fuel": "Hydro", "capacity_mw": 25.0, "owner": "Verbund Hydro Power GmbH", "commissioning_year": 1967, "osm_id": "way/342158239"}}, {"type": "Feature", "geometry": {"type": "Point", "coordinates": [14.007311, 48.15171]}, "properties": {"name": "Fernheizkraftwerk Wels", "fuel": "Gas", "capacity_mw": 47.0, "owner": "Wels Strom GmbH", "commissioning_year": null, "osm_id": "way/364737988"}}, {"type": "Feature", "geometry": {"type": "Point", "coordinates": [13.470643, 47.164725]}, "properties": {"name": "Wasserkraftwerk Zederhaus", "fuel": "Hydro", "capacity_mw": 10.0, "owner": "Salzburg AG", "commissioning_year": null, "osm_id": "way/365727917"}}, {"type": "Feature", "geometry": {"type": "Point", "coordinates": [13.804679, 48.020471]}, "properties": {"name": "Kraftwerk Traunfall", "fuel": "Hydro", "capacity_mw": 9.85, "owner": "Energie AG", "commissioning_year": 1902, "osm_id": "way/382870750"}}, {"type": "Feature", "geometry": {"type": "Point", "coordinates": [14.433984, 47.923022]}, "properties": {"name": "Kraftwerk Losenstein", "fuel": "Hydro", "capacity_mw": 39.0, "owner": "Ennskraftwerke AG", "commissioning_year": 1962, "osm_id": "way/384529439"}}, {"type": "Feature", "geometry": {"type": "Point", "coordinates": [15.311896, 47.282755]}, "properties": {"name": "Kraftwerk Frohnleiten", "fuel": "Hydro", "capacity_mw": 10.0, "owner": "MeinAlpenStrom GmbH", "commissioning_year": null, "osm_id": "way/389412201"}}, {"type": "Feature", "geometry": {"type": "Point", "coordinates": [16.359503, 48.234405]}, "properties": {"name": "M\u00fcllverbrennungsanlage Spittelau", "fuel": "Other", "capacity_mw": 6.0, "owner": "Wien Energie", "commissioning_year": 1971, "osm_id": "way/389461258"}}, {"type": "Feature", "geometry": {"type": "Point", "coordinates": [16.481036, 48.176396]}, "properties": {"name": "Kraftwerk Freudenau", "fuel": "Hydro", "capacity_mw": 172.0, "owner": "Austrian Hydro Power AG", "commissioning_year": null, "osm_id": "way/422048762"}}, {"type": "Feature", "geometry": {"type": "Point", "coordinates": [16.242306, 48.355436]}, "properties": {"name": "Kraftwerk Greifenstein", "fuel": "Hydro", "capacity_mw": 293.0, "owner": "Verbund Hydro Power GmbH", "commissioning_year": 1985, "osm_id": "way/422048763"}}, {"type": "Feature", "geometry": {"type": "Point", "coordinates": [15.30415, 48.223146]}, "properties": {"name": "Kraftwerk Melk", "fuel": "Hydro", "capacity_mw": 187.0, "owner": "Verbund Hydro Power GmbH", "commissioning_year": 1982, "osm_id": "way/422054244"}}, {"type": "Feature", "geometry": {"type": "Point", "coordinates": [14.695442, 48.166237]}, "properties": {"name": "Kraftwerk Wallsee-Mitterkirchen", "fuel": "Hydro", "capacity_mw": 210.0, "owner": "Verbund Hydro Power GmbH", "commissioning_year": 1968, "osm_id": "way/422054247"}}, {"type": "Feature", "geometry": {"type": "Point", "coordinates": [14.430306, 48.247808]}, "properties": {"name": "Kraftwerk Abwinden-Asten", "fuel": "Hydro", "capacity_mw": 168.0, "owner": "Verbund Hydro Power GmbH", "commissioning_year": 1979, "osm_id": "way/422054249"}}, {"type": "Feature", "geometry": {"type": "Point", "coordinates": [14.151414, 48.31647]}, "properties": {"name": "Kraftwerk Ottensheim-Wilhering", "fuel": "Hydro", "capacity_mw": 179.0, "owner": "VERBUND Hydro Power GmbH", "commissioning_year": 1974, "osm_id": "way/422057609"}}, {"type": "Feature", "geometry": {"type": "Point", "coordinates": [14.701516, 46.629355]}, "properties": {"name": "Edling", "fuel": "Hydro", "capacity_mw": 87.0, "owner": "Verbund Hydro Power GmbH", "commissioning_year": 1962, "osm_id": "way/422536533"}}, {"type": "Feature", "geometry": {"type": "Point", "coordinates": [14.171358, 46.534988]}, "properties": {"name": "Feistritz-Ludmannsdorf", "fuel": "Hydro", "capacity_mw": 88.0, "owner": "Verbund Hydro Power GmbH", "commissioning_year": 1968, "osm_id": "way/422536534"}}, {"type": "Feature", "geometry": {"type": "Point", "coordinates": [14.298626, 46.546262]}, "properties": {"name": "Ferlach-Maria Rain", "fuel": "Hydro", "capacity_mw": 75.0, "owner": "Verbund Hydro Power GmbH", "commissioning_year": 1975, "osm_id": "way/422536535"}}, {"type": "Feature", "geometry": {"type": "Point", "coordinates": [13.725563, 46.669607]}, "properties": {"name": "Kellerberg", "fuel": "Hydro", "capacity_mw": 25.0, "owner": "Verbund Hydro Power GmbH", "commissioning_year": 1985, "osm_id": "way/422536536"}}, {"type": "Feature", "geometry": {"type": "Point", "coordinates": [13.110298, 46.934074]}, "properties": {"name": "Kraftwerk Au\u00dferfragant", "fuel": "Hydro", "capacity_mw": 96.0, "owner": "KELAG", "commissioning_year": null, "osm_id": "way/439950967"}}, {"type": "Feature", "geometry": {"type": "Point", "coordinates": [14.35247, 47.940929]}, "properties": {"name": "Kraftwerk Ternberg", "fuel": "Hydro", "capacity_mw": 42.0, "owner": "Ennskraftwerke AG", "commissioning_year": null, "osm_id": "way/453932120"}}, {"type": "Feature", "geometry": {"type": "Point", "coordinates": [14.472745, 47.4921]}, "properties": {"name": "Laufkraftwerk Tiefenbach", "fuel": "Hydro", "capacity_mw": 10.0, "owner": "Verbund Hydro Power GmbH", "commissioning_year": null, "osm_id": "way/484832463"}}, {"type": "Feature", "geometry": {"type": "Point", "coordinates": [14.367399, 46.619655]}, "properties": {"name": "Biomasse-Heizkraftwerk Klagenfurt Ost", "fuel": "Biomass", "capacity_mw": 10.0, "owner": "Bioenergiezentrum GmbH", "commissioning_year": null, "osm_id": "way/504605673"}}, {"type": "Feature", "geometry": {"type": "Point", "coordinates": [14.280683, 46.736358]}, "properties": {"name": "Biomasse - Kraftwerk Nord", "fuel": "Biomass", "capacity_mw": 5.0, "owner": "Bioenergiezentrum GmbH", "commissioning_year": null, "osm_id": "way/513369308"}}, {"type": "Feature", "geometry": {"type": "Point", "coordinates": [13.949083, 47.433719]}, "properties": {"name": "Kraftwerk S\u00f6lk", "fuel": "Hydro", "capacity_mw": 61.0, "owner": "Verbund Hydro Power GmbH", "commissioning_year": null, "osm_id": "way/516583220"}}, {"type": "Feature", "geometry": {"type": "Point", "coordinates": [10.721309, 47.212234]}, "properties": {"name": "Kraftwerk Imst", "fuel": "Hydro", "capacity_mw": 89.0, "owner": "TIWAG", "commissioning_year": 1956, "osm_id": "way/566132573"}}, {"type": "Feature", "geometry": {"type": "Point", "coordinates": [15.091301, 46.98734]}, "properties": {"name": "Kraftwerk St. Martin", "fuel": "Hydro", "capacity_mw": 11.0, "owner": "Verbund Hydro Power GmbH", "commissioning_year": null, "osm_id": "way/582877262"}}, {"type": "Feature", "geometry": {"type": "Point", "coordinates": [13.047041, 46.992436]}, "properties": {"name": "Kraftwerk Feldsee", "fuel": "Hydro", "capacity_mw": 136.0, "owner": "KELAG", "commissioning_year": 2009, "osm_id": "way/591335526"}}, {"type": "Feature", "geometry": {"type": "Point", "coordinates": [13.343993, 46.895379]}, "properties": {"name": "Rei\u00dfeck II", "fuel": "Pumped Storage", "capacity_mw": 430.0, "owner": "Verbund Hydro Power GmbH", "commissioning_year": 2016, "osm_id": "way/592380599"}}, {"type": "Feature", "geometry": {"type": "Point", "coordinates": [13.481123, 47.103707]}, "properties": {"name": "Wasserkraftwerk Hintermuhr", "fuel": "Pumped Storage", "capacity_mw": 104.0, "owner": "Salzburg AG", "commissioning_year": null, "osm_id": "way/605645361"}}, {"type": "Feature", "geometry": {"type": "Point", "coordinates": [13.114507, 47.086602]}, "properties": {"name": "Kraftwerk B\u00f6ckstein", "fuel": "Hydro", "capacity_mw": 44.5, "owner": "Salzburg AG", "commissioning_year": 1981, "osm_id": "way/659744850"}}, {"type": "Feature", "geometry": {"type": "Point", "coordinates": [13.06231, 47.066473]}, "properties": {"name": "Kraftwerk Nassfeld", "fuel": "Hydro", "capacity_mw": 31.5, "owner": "Salzburg AG", "commissioning_year": 1982, "osm_id": "way/660188003"}}, {"type": "Feature", "geometry": {"type": "Point", "coordinates": [9.801867, 47.076851]}, "properties": {"name": "Rellswerk", "fuel": "Pumped Storage", "capacity_mw": 10.0, "owner": "illwerke vkw", "commissioning_year": 2018, "osm_id": "way/690477053"}}, {"type": "Feature", "geometry": {"type": "Point", "coordinates": [10.68061, 47.553294]}, "properties": {"name": "Wasserkraftwerk Wei\u00dfhaus", "fuel": "Hydro", "capacity_mw": 12.3, "owner": "Elektrizit\u00e4tswerke Reutte", "commissioning_year": 1968, "osm_id": "way/718307669"}}, {"type": "Feature", "geometry": {"type": "Point", "coordinates": [12.138548, 47.56038]}, "properties": {"name": "Kraftwerk Langkampfen", "fuel": "Hydro", "capacity_mw": 31.5, "owner": "Tiroler Wasserkraft AG", "commissioning_year": null, "osm_id": "way/720378945"}}, {"type": "Feature", "geometry": {"type": "Point", "coordinates": [14.955611, 46.633978]}, "properties": {"name": "Kraftwerk Koralpe", "fuel": "Hydro", "capacity_mw": 50.0, "owner": "KELAG", "commissioning_year": 1991, "osm_id": "way/721743368"}}, {"type": "Feature", "geometry": {"type": "Point", "coordinates": [15.44255, 47.039902]}, "properties": {"name": "Kraftwerk Graz-Puntigam", "fuel": "Hydro", "capacity_mw": 17.7, "owner": "Verbund Hydro Power GmbH", "commissioning_year": 2019, "osm_id": "way/723980427"}}, {"type": "Feature", "geometry": {"type": "Point", "coordinates": [16.503916, 48.178956]}, "properties": {"name": "nachgef\u00fchrte Fl\u00e4chen-Photovoltaikanlage Lobau", "fuel": "Solar", "capacity_mw": 5.59, "owner": "OMV", "commissioning_year": 2022, "osm_id": "way/736270499"}}, {"type": "Feature", "geometry": {"type": "Point", "coordinates": [11.967322, 47.146199]}, "properties": {"name": "Kraftwerk H\u00e4usling", "fuel": "Pumped Storage", "capacity_mw": 360.0, "owner": "Verbund Hydro Power GmbH", "commissioning_year": null, "osm_id": "way/740017068"}}, {"type": "Feature", "geometry": {"type": "Point", "coordinates": [11.773993, 47.086833]}, "properties": {"name": "Kraftwerk Ro\u00dfhag", "fuel": "Pumped Storage", "capacity_mw": 231.0, "owner": "Verbund Hydro Power GmbH", "commissioning_year": null, "osm_id": "way/740024757"}}, {"type": "Feature", "geometry": {"type": "Point", "coordinates": [10.664908, 47.067285]}, "properties": {"name": "Kraftwerk Prutz", "fuel": "Hydro", "capacity_mw": 392.0, "owner": "Tiroler Wasserkraft AG", "commissioning_year": 1964, "osm_id": "way/740549285"}}, {"type": "Feature", "geometry": {"type": "Point", "coordinates": [10.056451, 46.968874]}, "properties": {"name": "Vermuntwerk", "fuel": "Hydro", "capacity_mw": 156.0, "owner": "illwerke vkw", "commissioning_year": null, "osm_id": "way/740953103"}}, {"type": "Feature", "geometry": {"type": "Point", "coordinates": [12.722413, 47.198504]}, "properties": {"name": "Kavernenkrafthaus Limberg II", "fuel": "Pumped Storage", "capacity_mw": 480.0, "owner": "Verbund Hydro Power GmbH", "commissioning_year": null, "osm_id": "way/741343914"}}, {"type": "Feature", "geometry": {"type": "Point", "coordinates": [14.064951, 47.107243]}, "properties": {"name": "Kraftwerk Bodendorf-Paal", "fuel": "Hydro", "capacity_mw": 27.0, "owner": "Verbund Hydro Power GmbH", "commissioning_year": 1982, "osm_id": "way/771616044"}}, {"type": "Feature", "geometry": {"type": "Point", "coordinates": [15.356357, 48.745343]}, "properties": {"name": "Pellets- & Holzkraftwerk G\u00f6pfritz an der Wild", "fuel": "Biomass", "capacity_mw": 5.0, "owner": "Nawaro", "commissioning_year": null, "osm_id": "way/786943121"}}, {"type": "Feature", "geometry": {"type": "Point", "coordinates": [15.322997, 47.292464]}, "properties": {"name": "Kraftwerk Laufnitzdorf", "fuel": "Hydro", "capacity_mw": 18.0, "owner": "Verbund Hydro Power GmbH", "commissioning_year": null, "osm_id": "way/831081763"}}, {"type": "Feature", "geometry": {"type": "Point", "coordinates": [13.987193, 48.1369]}, "properties": {"name": "Kraftwerk Traunleiten", "fuel": "Hydro", "capacity_mw": 17.7, "owner": "Wels Strom", "commissioning_year": 2019, "osm_id": "way/864195652"}}, {"type": "Feature", "geometry": {"type": "Point", "coordinates": [15.49147, 46.908665]}, "properties": {"name": "Gas-Kombikraftwerk Mellach", "fuel": "Gas", "capacity_mw": 832.0, "owner": "Verbund AG", "commissioning_year": 2011, "osm_id": "way/866820661"}}, {"type": "Feature", "geometry": {"type": "Point", "coordinates": [12.880169, 47.285598]}, "properties": {"name": "Kraftwerk Gries", "fuel": "Hydro", "capacity_mw": 9.0, "owner": "Verbund Hydro Power GmbH", "commissioning_year": 2019, "osm_id": "way/867157747"}}, {"type": "Feature", "geometry": {"type": "Point", "coordinates": [16.466425, 48.171516]}, "properties": {"name": "Blockheizkraftwerk E_OS (Energie-Optimierung Schlammbehandlung)", "fuel": "Biomass", "capacity_mw": 8.9, "owner": "ebswien", "commissioning_year": 2020, "osm_id": "way/931583213"}}, {"type": "Feature", "geometry": {"type": "Point", "coordinates": [16.551701, 48.113845]}, "properties": {"name": "Photovoltaikanlage Flughafen Wien-Schwechat", "fuel": "Solar", "capacity_mw": 24.0, "owner": "Flughafen Wien AG", "commissioning_year": 2022, "osm_id": "way/973038526"}}, {"type": "Feature", "geometry": {"type": "Point", "coordinates": [14.099908, 48.172277]}, "properties": {"name": "Kraftwerk Marchtrenk", "fuel": "Hydro", "capacity_mw": 42.8, "owner": "Energie AG Ober\u00f6sterreich", "commissioning_year": null, "osm_id": "way/1008039251"}}, {"type": "Feature", "geometry": {"type": "Point", "coordinates": [14.114473, 47.908075]}, "properties": {"name": "Blockheizkraftwerk Kirchdorf", "fuel": "Gas", "capacity_mw": 13.2, "owner": "Energie AG", "commissioning_year": null, "osm_id": "way/1019798253"}}, {"type": "Feature", "geometry": {"type": "Point", "coordinates": [13.886045, 48.08904]}, "properties": {"name": "Kraftwerk Lambach", "fuel": "Hydro", "capacity_mw": 13.9, "owner": "Energie AG", "commissioning_year": 1999, "osm_id": "way/1022808157"}}, {"type": "Feature", "geometry": {"type": "Point", "coordinates": [16.668421, 48.346913]}, "properties": {"name": "Photovoltaikanlage Sch\u00f6nkirchen", "fuel": "Solar", "capacity_mw": 15.32, "owner": "OMV;Verbund", "commissioning_year": 2020, "osm_id": "way/1037944936"}}, {"type": "Feature", "geometry": {"type": "Point", "coordinates": [14.4742, 48.13153]}, "properties": {"name": "Kraftwerk M\u00fchlrading", "fuel": "Hydro", "capacity_mw": 25.0, "owner": "Ennskraftwerke AG", "commissioning_year": null, "osm_id": "way/1064966375"}}, {"type": "Feature", "geometry": {"type": "Point", "coordinates": [15.66767, 48.39876]}, "properties": {"name": "Biomasseheizkraftwerk Krems", "fuel": "Biomass", "capacity_mw": 5.0, "owner": "EVN", "commissioning_year": 2023, "osm_id": "way/1072774351"}}, {"type": "Feature", "geometry": {"type": "Point", "coordinates": [16.370846, 47.98053]}, "properties": {"name": "Photovoltaik Trumau", "fuel": "Solar", "capacity_mw": 10.0, "owner": "EVN", "commissioning_year": null, "osm_id": "way/1097443135"}}, {"type": "Feature", "geometry": {"type": "Point", "coordinates": [15.369725, 47.118371]}, "properties": {"name": "Kraftwerk Gratkorn", "fuel": "Hydro", "capacity_mw": 11.0, "owner": "Verbund AG", "commissioning_year": 2024, "osm_id": "way/1105854335"}}, {"type": "Feature", "geometry": {"type": "Point", "coordinates": [10.057916, 46.971772]}, "properties": {"name": "Kopswerk I", "fuel": "Hydro", "capacity_mw": 247.0, "owner": "illwerke vkw", "commissioning_year": 1969, "osm_id": "way/1111028008"}}, {"type": "Feature", "geometry": {"type": "Point", "coordinates": [10.043916, 46.976604]}, "properties": {"name": "Kopswerk II", "fuel": "Pumped Storage", "capacity_mw": 525.0, "owner": "illwerke vkw", "commissioning_year": 2008, "osm_id": "way/1111041107"}}, {"type": "Feature", "geometry": {"type": "Point", "coordinates": [10.060726, 46.934051]}, "properties": {"name": "Obervermuntwerk 2", "fuel": "Pumped Storage", "capacity_mw": 360.0, "owner": "illwerke vkw", "commissioning_year": 2019, "osm_id": "way/1115701323"}}, {"type": "Feature", "geometry": {"type": "Point", "coordinates": [16.378002, 47.990459]}, "properties": {"name": "Photovoltaikanlage Trumau", "fuel": "Solar", "capacity_mw": 9.7, "owner": "Wien Energie", "commissioning_year": null, "osm_id": "way/1125629067"}}, {"type": "Feature", "geometry": {"type": "Point", "coordinates": [14.693673, 48.164358]}, "properties": {"name": "Batteriespeicher Wallsee", "fuel": "Other", "capacity_mw": 10.0, "owner": "Verbund", "commissioning_year": 2020, "osm_id": "way/1159384155"}}, {"type": "Feature", "geometry": {"type": "Point", "coordinates": [13.440065, 48.434879]}, "properties": {"name": "Wasserkraftwerk Sch\u00e4rding-Neuhaus", "fuel": "Hydro", "capacity_mw": 96.0, "owner": "Grenzkraftwerke GmbH", "commissioning_year": 1961, "osm_id": "way/1168166889"}}, {"type": "Feature", "geometry": {"type": "Point", "coordinates": [13.141017, 47.316005]}, "properties": {"name": "Kraftwerk Wallnerau-Salzach", "fuel": "Hydro", "capacity_mw": 13.0, "owner": "Verbund AG", "commissioning_year": 1990, "osm_id": "way/1249889327"}}, {"type": "Feature", "geometry": {"type": "Point", "coordinates": [13.140933, 47.315526]}, "properties": {"name": "Kraftwerk Wallnerau-Unterwasser", "fuel": "Hydro", "capacity_mw": 5.0, "owner": "Verbund AG", "commissioning_year": 1989, "osm_id": "way/1249889329"}}, {"type": "Feature", "geometry": {"type": "Point", "coordinates": [13.189711, 46.933989]}, "properties": {"name": "Obervellach", "fuel": "Hydro", "capacity_mw": 38.0, "owner": "\u00d6BB", "commissioning_year": 2024, "osm_id": "way/1263573452"}}, {"type": "Feature", "geometry": {"type": "Point", "coordinates": [12.724546, 47.198127]}, "properties": {"name": "Kraftwerk Limberg 3", "fuel": "Pumped Storage", "capacity_mw": 480.0, "owner": "Verbund Hydro Power GmbH", "commissioning_year": null, "osm_id": "way/1341556719"}}, {"type": "Feature", "geometry": {"type": "Point", "coordinates": [15.370835, 46.95688]}, "properties": {"name": "Photovoltaikpark Dobl-Zwaring", "fuel": "Solar", "capacity_mw": 20.9, "owner": "Energie Steiermark", "commissioning_year": 2025, "osm_id": "way/1355027633"}}, {"type": "Feature", "geometry": {"type": "Point", "coordinates": [14.429919, 46.760918]}, "properties": {"name": "\u00d6BB Agri-Photovoltaikanlage Thalsdorf", "fuel": "Solar", "capacity_mw": 13.2, "owner": "\u00d6BB-Infrastruktur AG", "commissioning_year": 2025, "osm_id": "way/1376476800"}}, {"type": "Feature", "geometry": {"type": "Point", "coordinates": [13.16977, 47.542587]}, "properties": {"name": "Kraftwerk Stegenwald", "fuel": "Hydro", "capacity_mw": 14.3, "owner": "Salzburg AG", "commissioning_year": 2025, "osm_id": "way/1418780806"}}, {"type": "Feature", "geometry": {"type": "Point", "coordinates": [13.698263, 46.559946]}, "properties": {"name": "Batterie-Speicherkraftwerk Arnoldstein", "fuel": "Other", "capacity_mw": 11.0, "owner": "", "commissioning_year": 2025, "osm_id": "way/1442933821"}}, {"type": "Feature", "geometry": {"type": "Point", "coordinates": [16.255105, 47.850484]}, "properties": {"name": "", "fuel": "Solar", "capacity_mw": 17.0, "owner": "Wien Energie", "commissioning_year": null, "osm_id": "way/1445395729"}}, {"type": "Feature", "geometry": {"type": "Point", "coordinates": [16.287681, 47.793748]}, "properties": {"name": "", "fuel": "Biomass", "capacity_mw": 8.0, "owner": "Fundermax GmbH", "commissioning_year": null, "osm_id": "way/1531243108"}}, {"type": "Feature", "geometry": {"type": "Point", "coordinates": [12.738859, 47.259681]}, "properties": {"name": "Kaprun Hauptstufe", "fuel": "Hydro", "capacity_mw": 260.0, "owner": "Verbund Hydro Power GmbH", "commissioning_year": null, "osm_id": "way/1531475224"}}, {"type": "Feature", "geometry": {"type": "Point", "coordinates": [17.01417, 47.908412]}, "properties": {"name": "Windpark M\u00f6nchhof-Halbturn-Nickelsdorf", "fuel": "Wind", "capacity_mw": 207.0, "owner": "P\u00fcsp\u00f6k;Energie Burgenland;ImWind", "commissioning_year": null, "osm_id": "relation/2713622"}}, {"type": "Feature", "geometry": {"type": "Point", "coordinates": [17.032921, 47.823477]}, "properties": {"name": "Windpark Andau-Halbturn", "fuel": "Wind", "capacity_mw": 237.0, "owner": "P\u00fcsp\u00f6k;Energie Burgenland;ImWind", "commissioning_year": null, "osm_id": "relation/2717022"}}, {"type": "Feature", "geometry": {"type": "Point", "coordinates": [16.891332, 48.090394]}, "properties": {"name": "Windpark Hollern", "fuel": "Wind", "capacity_mw": 33.0, "owner": "VERBUND Wind Power Austria GmbH", "commissioning_year": null, "osm_id": "relation/2721058"}}, {"type": "Feature", "geometry": {"type": "Point", "coordinates": [15.448278, 48.17428]}, "properties": {"name": "Windpark Haindorf-Inning I, II", "fuel": "Wind", "capacity_mw": 16.2, "owner": "", "commissioning_year": null, "osm_id": "relation/2721226"}}, {"type": "Feature", "geometry": {"type": "Point", "coordinates": [16.906962, 48.036513]}, "properties": {"name": "Windpark Neudorf", "fuel": "Wind", "capacity_mw": 28.0, "owner": "Energie Burgenland", "commissioning_year": 2003, "osm_id": "relation/2771426"}}, {"type": "Feature", "geometry": {"type": "Point", "coordinates": [16.922929, 48.038383]}, "properties": {"name": "Windpark Potzneusiedl I", "fuel": "Wind", "capacity_mw": 18.0, "owner": "", "commissioning_year": 2005, "osm_id": "relation/2771517"}}, {"type": "Feature", "geometry": {"type": "Point", "coordinates": [16.910149, 48.048489]}, "properties": {"name": "Windpark Potzneusiedl II", "fuel": "Wind", "capacity_mw": 15.0, "owner": "", "commissioning_year": 2012, "osm_id": "relation/2771573"}}, {"type": "Feature", "geometry": {"type": "Point", "coordinates": [16.896516, 47.95147]}, "properties": {"name": "Windpark Neusiedl-Weiden", "fuel": "Wind", "capacity_mw": 79.2, "owner": "Energie Burgenland", "commissioning_year": 2006, "osm_id": "relation/2771653"}}, {"type": "Feature", "geometry": {"type": "Point", "coordinates": [17.033287, 48.075874]}, "properties": {"name": "Windpark Kittsee", "fuel": "Wind", "capacity_mw": 40.4, "owner": "Energie Burgenland;oekostrom", "commissioning_year": null, "osm_id": "relation/2783179"}}, {"type": "Feature", "geometry": {"type": "Point", "coordinates": [17.023205, 48.091958]}, "properties": {"name": "Windpark Berg", "fuel": "Wind", "capacity_mw": 19.8, "owner": "ContourGlobal", "commissioning_year": null, "osm_id": "relation/2783479"}}, {"type": "Feature", "geometry": {"type": "Point", "coordinates": [17.009453, 48.057433]}, "properties": {"name": "Windpark Pama", "fuel": "Wind", "capacity_mw": 10.0, "owner": "", "commissioning_year": null, "osm_id": "relation/2783500"}}, {"type": "Feature", "geometry": {"type": "Point", "coordinates": [16.951359, 48.062134]}, "properties": {"name": "Windpark Prellenkirchen", "fuel": "Wind", "capacity_mw": 28.2, "owner": "EVN Naturkraft;Kittel M\u00fchle", "commissioning_year": null, "osm_id": "relation/2783524"}}, {"type": "Feature", "geometry": {"type": "Point", "coordinates": [16.772487, 48.055075]}, "properties": {"name": "Windpark H\u00f6flein", "fuel": "Wind", "capacity_mw": 19.0, "owner": "\u00d6koEnergie;W.E.B", "commissioning_year": null, "osm_id": "relation/2783617"}}, {"type": "Feature", "geometry": {"type": "Point", "coordinates": [16.819888, 48.072815]}, "properties": {"name": "Windpark H\u00f6flein Ost", "fuel": "Wind", "capacity_mw": 36.0, "owner": "Energiepark Bruck/Leitha", "commissioning_year": null, "osm_id": "relation/2783643"}}, {"type": "Feature", "geometry": {"type": "Point", "coordinates": [16.621188, 47.57892]}, "properties": {"name": "Windpark Deutschkreutz", "fuel": "Wind", "capacity_mw": 16.0, "owner": "", "commissioning_year": null, "osm_id": "relation/2783733"}}, {"type": "Feature", "geometry": {"type": "Point", "coordinates": [16.361626, 47.933792]}, "properties": {"name": "Windpark Pottendorf", "fuel": "Wind", "capacity_mw": 43.0, "owner": "Wien Energie", "commissioning_year": 2015, "osm_id": "relation/2783774"}}, {"type": "Feature", "geometry": {"type": "Point", "coordinates": [16.649268, 48.348655]}, "properties": {"name": "Windpark Auersthal", "fuel": "Wind", "capacity_mw": 24.0, "owner": "WEB Windenergie AG", "commissioning_year": null, "osm_id": "relation/2783798"}}, {"type": "Feature", "geometry": {"type": "Point", "coordinates": [16.353781, 47.944877]}, "properties": {"name": "Windpark Tattendorf", "fuel": "Wind", "capacity_mw": 16.0, "owner": "EVN Naturkraft", "commissioning_year": null, "osm_id": "relation/2783802"}}, {"type": "Feature", "geometry": {"type": "Point", "coordinates": [16.663841, 48.268676]}, "properties": {"name": "Windpark Markgrafneusiedl I", "fuel": "Wind", "capacity_mw": 18.0, "owner": "EVN Naturkraft", "commissioning_year": 2011, "osm_id": "relation/2783813"}}, {"type": "Feature", "geometry": {"type": "Point", "coordinates": [16.415682, 47.764635]}, "properties": {"name": "Windpark P\u00f6ttelsdorf II", "fuel": "Wind", "capacity_mw": 9.2, "owner": "", "commissioning_year": null, "osm_id": "relation/2785813"}}, {"type": "Feature", "geometry": {"type": "Point", "coordinates": [15.030047, 46.844874]}, "properties": {"name": "Windpark Handalm", "fuel": "Wind", "capacity_mw": 39.0, "owner": "Energie Steiermark", "commissioning_year": 2017, "osm_id": "relation/7421175"}}, {"type": "Feature", "geometry": {"type": "Point", "coordinates": [10.696898, 47.164498]}, "properties": {"name": "Kraftwerk Imst", "fuel": "Hydro", "capacity_mw": 89.0, "owner": "TIWAG", "commissioning_year": 1956, "osm_id": "relation/8073569"}}, {"type": "Feature", "geometry": {"type": "Point", "coordinates": [14.937025, 46.643434]}, "properties": {"name": "Lavam\u00fcnd", "fuel": "Hydro", "capacity_mw": 28.0, "owner": "Verbund Hydro Power GmbH", "commissioning_year": 1949, "osm_id": "relation/8387518"}}, {"type": "Feature", "geometry": {"type": "Point", "coordinates": [16.361116, 47.952589]}, "properties": {"name": "Windpark Oberwaltersdorf", "fuel": "Wind", "capacity_mw": 19.8, "owner": "Wien Energie/EVN", "commissioning_year": null, "osm_id": "relation/9231858"}}, {"type": "Feature", "geometry": {"type": "Point", "coordinates": [16.589313, 48.531672]}, "properties": {"name": "Windpark Paasdorf-Lanzendorf", "fuel": "Wind", "capacity_mw": 35.2, "owner": "EVN Naturkraft;ImWind", "commissioning_year": 2016, "osm_id": "relation/9790742"}}, {"type": "Feature", "geometry": {"type": "Point", "coordinates": [16.492049, 47.960633]}, "properties": {"name": "Windpark Seibersdorf", "fuel": "Wind", "capacity_mw": 21.0, "owner": "Energiepark Bruck/Leitha", "commissioning_year": null, "osm_id": "relation/9790836"}}, {"type": "Feature", "geometry": {"type": "Point", "coordinates": [15.068891, 48.189891]}, "properties": {"name": "Kraftwerk Ybbs-Persenbeug", "fuel": "Hydro", "capacity_mw": 236.5, "owner": "VERBUND Hydro Power GmbH", "commissioning_year": 1959, "osm_id": "relation/10245279"}}, {"type": "Feature", "geometry": {"type": "Point", "coordinates": [16.726128, 48.033729]}, "properties": {"name": "Windpark Bruck an der Leitha", "fuel": "Wind", "capacity_mw": 9.0, "owner": "Verbund", "commissioning_year": 2000, "osm_id": "relation/10749247"}}, {"type": "Feature", "geometry": {"type": "Point", "coordinates": [16.708523, 48.549102]}, "properties": {"name": "Windpark Maustrenk-Zistersdorf", "fuel": "Wind", "capacity_mw": 12.0, "owner": "WEB Windenergie AG", "commissioning_year": null, "osm_id": "relation/11078533"}}, {"type": "Feature", "geometry": {"type": "Point", "coordinates": [16.534536, 48.239903]}, "properties": {"name": "Photovoltaikanlage Schafflerhofstra\u00dfe", "fuel": "Solar", "capacity_mw": 17.0, "owner": "Wien Energie", "commissioning_year": 2020, "osm_id": "relation/12741957"}}, {"type": "Feature", "geometry": {"type": "Point", "coordinates": [16.558333, 47.962031]}, "properties": {"name": "Windpark Hof am Leithaberge", "fuel": "Wind", "capacity_mw": 15.0, "owner": "Energiepark Bruck/Leitha", "commissioning_year": null, "osm_id": "relation/12772100"}}, {"type": "Feature", "geometry": {"type": "Point", "coordinates": [16.687726, 48.000918]}, "properties": {"name": "Windpark Sommerein", "fuel": "Wind", "capacity_mw": 34.5, "owner": "EVN Naturkraft", "commissioning_year": null, "osm_id": "relation/12772514"}}, {"type": "Feature", "geometry": {"type": "Point", "coordinates": [16.531404, 47.935497]}, "properties": {"name": "Windpark Au am Leithaberge", "fuel": "Wind", "capacity_mw": 18.2, "owner": "EVN Naturkraft", "commissioning_year": null, "osm_id": "relation/12773462"}}, {"type": "Feature", "geometry": {"type": "Point", "coordinates": [15.010252, 46.729548]}, "properties": {"name": "Windpark Steinberger Alpe", "fuel": "Wind", "capacity_mw": 19.8, "owner": "Brandpower", "commissioning_year": 2022, "osm_id": "relation/13248736"}}, {"type": "Feature", "geometry": {"type": "Point", "coordinates": [14.389777, 47.271061]}, "properties": {"name": "Tauernwindpark", "fuel": "Wind", "capacity_mw": 32.0, "owner": "Tauernwind Windkraftanlagen GmbH", "commissioning_year": null, "osm_id": "relation/13327557"}}, {"type": "Feature", "geometry": {"type": "Point", "coordinates": [15.058909, 46.909169]}, "properties": {"name": "Windpark Freil\u00e4nderalm 1", "fuel": "Wind", "capacity_mw": 8.0, "owner": "Energie Steiermark", "commissioning_year": 2014, "osm_id": "relation/13466915"}}, {"type": "Feature", "geometry": {"type": "Point", "coordinates": [15.891138, 47.350637]}, "properties": {"name": "Windpark Pongratzer Kogel", "fuel": "Wind", "capacity_mw": 9.2, "owner": "Feistritzwerke-Steweag GmbH", "commissioning_year": 2013, "osm_id": "relation/13470364"}}, {"type": "Feature", "geometry": {"type": "Point", "coordinates": [16.987985, 47.902583]}, "properties": {"name": "Windpark Edmundshof", "fuel": "Wind", "capacity_mw": 42.7, "owner": "P\u00fcsp\u00f6k;ImWind", "commissioning_year": null, "osm_id": "relation/13750152"}}, {"type": "Feature", "geometry": {"type": "Point", "coordinates": [16.840381, 48.097919]}, "properties": {"name": "Windpark Petronell-Carnuntum", "fuel": "Wind", "capacity_mw": 43.0, "owner": "Verbund", "commissioning_year": null, "osm_id": "relation/13799696"}}, {"type": "Feature", "geometry": {"type": "Point", "coordinates": [16.66988, 48.035132]}, "properties": {"name": "Windpark Trautmannsdorf Nord", "fuel": "Wind", "capacity_mw": 30.0, "owner": "Energie AG;P\u00fcsp\u00f6k;ImWind", "commissioning_year": null, "osm_id": "relation/13850288"}}, {"type": "Feature", "geometry": {"type": "Point", "coordinates": [16.733552, 48.03797]}, "properties": {"name": "Windpark Bruck-G\u00f6ttlesbrunn", "fuel": "Wind", "capacity_mw": 21.35, "owner": "Verbund", "commissioning_year": 2015, "osm_id": "relation/13883679"}}, {"type": "Feature", "geometry": {"type": "Point", "coordinates": [16.803071, 48.047838]}, "properties": {"name": "Windpark Haadfeld", "fuel": "Wind", "capacity_mw": 36.0, "owner": "Energiepark Bruck/Leitha", "commissioning_year": null, "osm_id": "relation/13883854"}}, {"type": "Feature", "geometry": {"type": "Point", "coordinates": [16.88843, 48.100998]}, "properties": {"name": "Windpark Bad Deutsch-Altenburg Carnuntum", "fuel": "Wind", "capacity_mw": 21.0, "owner": "Energiepark Bruck/Leitha", "commissioning_year": null, "osm_id": "relation/13885624"}}, {"type": "Feature", "geometry": {"type": "Point", "coordinates": [16.84495, 48.07982]}, "properties": {"name": "Windpark Rohrau", "fuel": "Wind", "capacity_mw": 24.0, "owner": "Energiepark Bruck/Leitha", "commissioning_year": null, "osm_id": "relation/13899927"}}, {"type": "Feature", "geometry": {"type": "Point", "coordinates": [16.758898, 48.08381]}, "properties": {"name": "Windpark H\u00f6flein West", "fuel": "Wind", "capacity_mw": 17.25, "owner": "Energiepark Bruck/Leitha", "commissioning_year": null, "osm_id": "relation/13899975"}}, {"type": "Feature", "geometry": {"type": "Point", "coordinates": [14.339774, 48.284098]}, "properties": {"name": "Voestalpine Kraftwerk Linz", "fuel": "Gas", "capacity_mw": 267.0, "owner": "Voestalpine", "commissioning_year": null, "osm_id": "relation/14006374"}}, {"type": "Feature", "geometry": {"type": "Point", "coordinates": [15.010626, 46.661071]}, "properties": {"name": "Windpark Soboth/Lavam\u00fcnd", "fuel": "Wind", "capacity_mw": 6.6, "owner": "", "commissioning_year": null, "osm_id": "relation/14128938"}}, {"type": "Feature", "geometry": {"type": "Point", "coordinates": [16.757472, 48.595924]}, "properties": {"name": "Windpark Neusiedl/Zaya", "fuel": "Wind", "capacity_mw": 9.0, "owner": "EVN Naturkraft", "commissioning_year": null, "osm_id": "relation/14178851"}}, {"type": "Feature", "geometry": {"type": "Point", "coordinates": [16.795274, 48.520065]}, "properties": {"name": "Windpark Gro\u00dfinzersdorf", "fuel": "Wind", "capacity_mw": 9.9, "owner": "WindLandKraft", "commissioning_year": 2018, "osm_id": "relation/14178852"}}, {"type": "Feature", "geometry": {"type": "Point", "coordinates": [16.773933, 48.503179]}, "properties": {"name": "Windpark Zistersdorf Ost I", "fuel": "Wind", "capacity_mw": 9.0, "owner": "ContourGlobal", "commissioning_year": 2014, "osm_id": "relation/14178853"}}, {"type": "Feature", "geometry": {"type": "Point", "coordinates": [16.780015, 48.499768]}, "properties": {"name": "Windpark Zistersdorf Ost II", "fuel": "Wind", "capacity_mw": 18.45, "owner": "ImWind", "commissioning_year": 2014, "osm_id": "relation/14178854"}}, {"type": "Feature", "geometry": {"type": "Point", "coordinates": [16.771317, 48.501427]}, "properties": {"name": "Windpark Loidesthal", "fuel": "Wind", "capacity_mw": 27.6, "owner": "ImWind", "commissioning_year": 2017, "osm_id": "relation/14178855"}}, {"type": "Feature", "geometry": {"type": "Point", "coordinates": [14.638673, 47.848476]}, "properties": {"name": "Kraftwerk Weyer", "fuel": "Hydro", "capacity_mw": 36.8, "owner": "Ennskraftwerke AG", "commissioning_year": 1969, "osm_id": "relation/14205364"}}, {"type": "Feature", "geometry": {"type": "Point", "coordinates": [16.390202, 48.000055]}, "properties": {"name": "Windpark Trumau", "fuel": "Wind", "capacity_mw": 27.6, "owner": "Wien Energie", "commissioning_year": null, "osm_id": "relation/14275301"}}, {"type": "Feature", "geometry": {"type": "Point", "coordinates": [16.774271, 48.640332]}, "properties": {"name": "Windpark Hagn", "fuel": "Wind", "capacity_mw": 47.0, "owner": "ContourGlobal", "commissioning_year": null, "osm_id": "relation/14288415"}}, {"type": "Feature", "geometry": {"type": "Point", "coordinates": [16.660543, 48.271172]}, "properties": {"name": "Windpark Markgrafneusiedl III", "fuel": "Wind", "capacity_mw": 9.4, "owner": "evn naturkraft", "commissioning_year": 2019, "osm_id": "relation/14418164"}}, {"type": "Feature", "geometry": {"type": "Point", "coordinates": [16.666027, 48.25642]}, "properties": {"name": "Windpark Glinzendorf I+II", "fuel": "Wind", "capacity_mw": 20.4, "owner": "evn naturkraft;Wien Energie", "commissioning_year": 2012, "osm_id": "relation/14418166"}}, {"type": "Feature", "geometry": {"type": "Point", "coordinates": [16.687252, 48.266071]}, "properties": {"name": "Windpark Obersiebenbrunn II", "fuel": "Wind", "capacity_mw": 21.0, "owner": "EVN Naturkraft", "commissioning_year": 2019, "osm_id": "relation/14418183"}}, {"type": "Feature", "geometry": {"type": "Point", "coordinates": [16.692114, 48.287577]}, "properties": {"name": "Windpark Obersiebenbrunn I-XIII", "fuel": "Wind", "capacity_mw": 26.0, "owner": "\u00d6KOENERGIE", "commissioning_year": 2006, "osm_id": "relation/14418196"}}, {"type": "Feature", "geometry": {"type": "Point", "coordinates": [16.697713, 48.239201]}, "properties": {"name": "Windpark Marchfeld Mitte", "fuel": "Wind", "capacity_mw": 42.7, "owner": "WindLandKraft", "commissioning_year": 2015, "osm_id": "relation/14418359"}}, {"type": "Feature", "geometry": {"type": "Point", "coordinates": [16.756687, 48.398465]}, "properties": {"name": "Windpark Prottes/Ollersdorf", "fuel": "Wind", "capacity_mw": 36.6, "owner": "evn naturkraft", "commissioning_year": 2015, "osm_id": "relation/14418424"}}, {"type": "Feature", "geometry": {"type": "Point", "coordinates": [16.74324, 48.106019]}, "properties": {"name": "Windpark Scharndorf West", "fuel": "Wind", "capacity_mw": 6.0, "owner": "PROFES", "commissioning_year": 2013, "osm_id": "relation/14441330"}}, {"type": "Feature", "geometry": {"type": "Point", "coordinates": [16.763997, 48.092637]}, "properties": {"name": "Windpark Scharndorf III", "fuel": "Wind", "capacity_mw": 18.0, "owner": "P\u00fcsp\u00f6k & Energie AG;ImWind", "commissioning_year": 2014, "osm_id": "relation/14441781"}}, {"type": "Feature", "geometry": {"type": "Point", "coordinates": [16.764621, 48.094244]}, "properties": {"name": "Windpark Scharndorf IV", "fuel": "Wind", "capacity_mw": 6.6, "owner": "P\u00fcsp\u00f6k & Energie AG;ImWind", "commissioning_year": 2019, "osm_id": "relation/14441832"}}, {"type": "Feature", "geometry": {"type": "Point", "coordinates": [16.799334, 48.089208]}, "properties": {"name": "Windpark Scharndorf", "fuel": "Wind", "capacity_mw": 30.0, "owner": "ContourGlobal", "commissioning_year": 2003, "osm_id": "relation/14441912"}}, {"type": "Feature", "geometry": {"type": "Point", "coordinates": [16.858168, 48.041278]}, "properties": {"name": "Windpark Parndorf VI", "fuel": "Wind", "capacity_mw": 38.0, "owner": "Allianz;Energie Burgenland", "commissioning_year": 2018, "osm_id": "relation/14441966"}}, {"type": "Feature", "geometry": {"type": "Point", "coordinates": [16.88207, 48.05157]}, "properties": {"name": "Windpark Neuhof III", "fuel": "Wind", "capacity_mw": 36.0, "owner": "\u00d6kowind;WEB", "commissioning_year": 2012, "osm_id": "relation/14441971"}}, {"type": "Feature", "geometry": {"type": "Point", "coordinates": [16.936363, 47.926441]}, "properties": {"name": "Windpark Gols", "fuel": "Wind", "capacity_mw": 16.8, "owner": "Energie Burgenland;Wien Energie", "commissioning_year": null, "osm_id": "relation/14629123"}}, {"type": "Feature", "geometry": {"type": "Point", "coordinates": [16.956728, 47.933539]}, "properties": {"name": "Windpark Gols IV-V", "fuel": "Wind", "capacity_mw": 6.0, "owner": "WEB Windenergie AG", "commissioning_year": null, "osm_id": "relation/14630436"}}, {"type": "Feature", "geometry": {"type": "Point", "coordinates": [16.954343, 47.921319]}, "properties": {"name": "Windpark Pannonia Gols", "fuel": "Wind", "capacity_mw": 135.0, "owner": "P\u00dcSP\u00d6K", "commissioning_year": null, "osm_id": "relation/14630437"}}, {"type": "Feature", "geometry": {"type": "Point", "coordinates": [16.960888, 47.904593]}, "properties": {"name": "Windpark M\u00f6nchhof", "fuel": "Wind", "capacity_mw": 22.0, "owner": "P\u00dcSP\u00d6K", "commissioning_year": null, "osm_id": "relation/14630490"}}, {"type": "Feature", "geometry": {"type": "Point", "coordinates": [16.975415, 47.940223]}, "properties": {"name": "Windpark Zurndorf II", "fuel": "Wind", "capacity_mw": 24.2, "owner": "Energie Burgenland", "commissioning_year": null, "osm_id": "relation/14630546"}}, {"type": "Feature", "geometry": {"type": "Point", "coordinates": [16.828751, 48.011359]}, "properties": {"name": "Windpark Bruckneudorf", "fuel": "Wind", "capacity_mw": 17.25, "owner": "Energiepark Bruck/Leitha;Energie Burgenland", "commissioning_year": null, "osm_id": "relation/14630637"}}, {"type": "Feature", "geometry": {"type": "Point", "coordinates": [16.68855, 48.187421]}, "properties": {"name": "Windpark Andlersdorf/Orth", "fuel": "Wind", "capacity_mw": 39.65, "owner": "Wien Energie", "commissioning_year": 2017, "osm_id": "relation/14635343"}}, {"type": "Feature", "geometry": {"type": "Point", "coordinates": [16.336297, 48.517334]}, "properties": {"name": "Windpark Simonsfeld II", "fuel": "Wind", "capacity_mw": 9.51, "owner": "Windkraft Simonsfeld", "commissioning_year": 2016, "osm_id": "relation/14639710"}}, {"type": "Feature", "geometry": {"type": "Point", "coordinates": [16.813913, 48.496593]}, "properties": {"name": "Windpark D\u00fcrnkrut I", "fuel": "Wind", "capacity_mw": 10.25, "owner": "Windkraft Simonsfeld", "commissioning_year": 2012, "osm_id": "relation/14769740"}}, {"type": "Feature", "geometry": {"type": "Point", "coordinates": [16.804178, 48.492649]}, "properties": {"name": "Windpark D\u00fcrnkrut II", "fuel": "Wind", "capacity_mw": 12.75, "owner": "Windkraft Simonsfeld", "commissioning_year": 2018, "osm_id": "relation/14769745"}}, {"type": "Feature", "geometry": {"type": "Point", "coordinates": [16.442932, 48.502074]}, "properties": {"name": "Windpark Kreuzstetten I", "fuel": "Wind", "capacity_mw": 20.0, "owner": "Windkraft Simonsfeld", "commissioning_year": 2005, "osm_id": "relation/14769988"}}, {"type": "Feature", "geometry": {"type": "Point", "coordinates": [16.451995, 48.497211]}, "properties": {"name": "Windpark Kreuzstetten IV", "fuel": "Wind", "capacity_mw": 22.2, "owner": "Windkraft Simonsfeld", "commissioning_year": 2018, "osm_id": "relation/14770030"}}, {"type": "Feature", "geometry": {"type": "Point", "coordinates": [16.378002, 47.990459]}, "properties": {"name": "Hybridkraftwerk Trumau", "fuel": "Other", "capacity_mw": 37.0, "owner": "Wien Energie", "commissioning_year": null, "osm_id": "relation/15060810"}}, {"type": "Feature", "geometry": {"type": "Point", "coordinates": [16.697348, 48.34312]}, "properties": {"name": "Windpark G\u00e4nserndorf West", "fuel": "Wind", "capacity_mw": 6.2, "owner": "EVN Naturkraft", "commissioning_year": 2018, "osm_id": "relation/15918083"}}, {"type": "Feature", "geometry": {"type": "Point", "coordinates": [16.738108, 48.583304]}, "properties": {"name": "Windpark Steinberg-Prinzendorf II", "fuel": "Wind", "capacity_mw": 12.0, "owner": "Windkraft Simonsfeld", "commissioning_year": null, "osm_id": "relation/15980497"}}, {"type": "Feature", "geometry": {"type": "Point", "coordinates": [16.739765, 48.584424]}, "properties": {"name": "Windpark Steinberg-Prinzendorf III", "fuel": "Wind", "capacity_mw": 40.8, "owner": "Windkraft Simonsfeld", "commissioning_year": null, "osm_id": "relation/15980498"}}, {"type": "Feature", "geometry": {"type": "Point", "coordinates": [16.782262, 48.584535]}, "properties": {"name": "Windpark Palterndorf-Dobermannsdorf - Neusiedl/Zaya S\u00fcd", "fuel": "Wind", "capacity_mw": 42.0, "owner": "EVN Naturkraft", "commissioning_year": null, "osm_id": "relation/15980693"}}, {"type": "Feature", "geometry": {"type": "Point", "coordinates": [16.370846, 47.98053]}, "properties": {"name": "Hybridkraftwerk Trumau/Tattendorf", "fuel": "Other", "capacity_mw": 16.0, "owner": "EVN Naturkraft", "commissioning_year": null, "osm_id": "relation/16023474"}}, {"type": "Feature", "geometry": {"type": "Point", "coordinates": [15.725765, 48.209254]}, "properties": {"name": "Windpark Schildberg", "fuel": "Wind", "capacity_mw": 12.6, "owner": "EVN Naturkraft", "commissioning_year": null, "osm_id": "relation/16028435"}}, {"type": "Feature", "geometry": {"type": "Point", "coordinates": [16.689005, 48.451938]}, "properties": {"name": "Windpark Hohenruppersdorf II", "fuel": "Wind", "capacity_mw": 33.0, "owner": "Ventureal", "commissioning_year": 2016, "osm_id": "relation/16036169"}}, {"type": "Feature", "geometry": {"type": "Point", "coordinates": [16.822326, 48.488782]}, "properties": {"name": "Windpark D\u00fcrnkrut III", "fuel": "Wind", "capacity_mw": 28.3, "owner": "Windkraft Simonsfeld;WEB Windenergie", "commissioning_year": 2023, "osm_id": "relation/16701532"}}, {"type": "Feature", "geometry": {"type": "Point", "coordinates": [16.626266, 48.621775]}, "properties": {"name": "Windpark Poysdorf-Wilfersdorf I", "fuel": "Wind", "capacity_mw": 16.0, "owner": "Windkraft Simonsfeld", "commissioning_year": 2005, "osm_id": "relation/16810831"}}, {"type": "Feature", "geometry": {"type": "Point", "coordinates": [16.629421, 48.610659]}, "properties": {"name": "Windpark Poysdorf-Wilfersdorf II", "fuel": "Wind", "capacity_mw": 10.0, "owner": "Windkraft Simonsfeld", "commissioning_year": null, "osm_id": "relation/16810844"}}, {"type": "Feature", "geometry": {"type": "Point", "coordinates": [16.636353, 48.624409]}, "properties": {"name": "Windpark Poysdorf-Wilfersdorf III", "fuel": "Wind", "capacity_mw": 25.6, "owner": "Windkraft Simonsfeld", "commissioning_year": 2013, "osm_id": "relation/16810889"}}, {"type": "Feature", "geometry": {"type": "Point", "coordinates": [16.586789, 48.648425]}, "properties": {"name": "Windpark Poysdorf-Wilfersdorf V", "fuel": "Wind", "capacity_mw": 16.8, "owner": "Windkraft Simonsfeld", "commissioning_year": 2021, "osm_id": "relation/16811019"}}, {"type": "Feature", "geometry": {"type": "Point", "coordinates": [16.688184, 48.62294]}, "properties": {"name": "Windpark Rannersdorf I", "fuel": "Wind", "capacity_mw": 8.0, "owner": "Windkraft Simonsfeld", "commissioning_year": 2005, "osm_id": "relation/16811038"}}, {"type": "Feature", "geometry": {"type": "Point", "coordinates": [16.684843, 48.623054]}, "properties": {"name": "Windpark Gro\u00dfkrut-Hauskirchen-Wilfersdorf", "fuel": "Wind", "capacity_mw": 19.02, "owner": "Windkraft Simonsfeld;ImWind", "commissioning_year": 2016, "osm_id": "relation/16811039"}}, {"type": "Feature", "geometry": {"type": "Point", "coordinates": [16.653141, 48.533497]}, "properties": {"name": "Windpark Kettlasbrunn II", "fuel": "Wind", "capacity_mw": 16.8, "owner": "Liechtenstein Gruppe;EVN Naturkraft", "commissioning_year": 2021, "osm_id": "relation/16811161"}}, {"type": "Feature", "geometry": {"type": "Point", "coordinates": [16.651477, 48.52772]}, "properties": {"name": "Windpark Schrick II", "fuel": "Wind", "capacity_mw": 16.1, "owner": "\u00d6KOENERGIE", "commissioning_year": 2012, "osm_id": "relation/16811162"}}, {"type": "Feature", "geometry": {"type": "Point", "coordinates": [16.633932, 48.5417]}, "properties": {"name": "Windpark Kettlasbrunn", "fuel": "Wind", "capacity_mw": 40.0, "owner": "EVN Naturkraft", "commissioning_year": 2006, "osm_id": "relation/16811171"}}, {"type": "Feature", "geometry": {"type": "Point", "coordinates": [16.589282, 48.51983]}, "properties": {"name": "Windpark Gugelberg", "fuel": "Wind", "capacity_mw": 9.9, "owner": "Gugelwind Ges.m.b.H", "commissioning_year": 2017, "osm_id": "relation/16811202"}}, {"type": "Feature", "geometry": {"type": "Point", "coordinates": [16.487047, 48.513505]}, "properties": {"name": "Windpark Ladendorf", "fuel": "Wind", "capacity_mw": 18.0, "owner": "ImWind", "commissioning_year": 2016, "osm_id": "relation/16811236"}}, {"type": "Feature", "geometry": {"type": "Point", "coordinates": [16.793915, 48.502041]}, "properties": {"name": "Windpark Velm-G\u00f6tzendorf Repowering", "fuel": "Wind", "capacity_mw": 11.8, "owner": "ContourGlobal", "commissioning_year": 2019, "osm_id": "relation/16813482"}}, {"type": "Feature", "geometry": {"type": "Point", "coordinates": [16.789725, 48.48885]}, "properties": {"name": "Windpark D\u00fcrnkrut G\u00f6tzendorf II", "fuel": "Wind", "capacity_mw": 13.8, "owner": "WEB Windenergie", "commissioning_year": null, "osm_id": "relation/16814403"}}, {"type": "Feature", "geometry": {"type": "Point", "coordinates": [16.802332, 48.491219]}, "properties": {"name": "Windpark D\u00fcrnkrut-G\u00f6tzendorf I", "fuel": "Wind", "capacity_mw": 10.0, "owner": "WEB Windenergie", "commissioning_year": 2012, "osm_id": "relation/16814482"}}, {"type": "Feature", "geometry": {"type": "Point", "coordinates": [16.546247, 48.322654]}, "properties": {"name": "Windpark Deutsch-Wagram", "fuel": "Wind", "capacity_mw": 15.35, "owner": "EVN Naturkraft;WEB Windenergie", "commissioning_year": 2013, "osm_id": "relation/16814721"}}, {"type": "Feature", "geometry": {"type": "Point", "coordinates": [16.708131, 48.450415]}, "properties": {"name": "Windpark Spannberg III", "fuel": "Wind", "capacity_mw": 16.8, "owner": "WEB Windenergie", "commissioning_year": 2022, "osm_id": "relation/16818635"}}, {"type": "Feature", "geometry": {"type": "Point", "coordinates": [16.710294, 48.44002]}, "properties": {"name": "Windpark Spannberg II", "fuel": "Wind", "capacity_mw": 12.3, "owner": "WEB Windenergie", "commissioning_year": 2015, "osm_id": "relation/16818636"}}, {"type": "Feature", "geometry": {"type": "Point", "coordinates": [16.69798, 48.455641]}, "properties": {"name": "Windpark Hohenruppersdorf-Spannberg", "fuel": "Wind", "capacity_mw": 12.0, "owner": "WEB Windenergie", "commissioning_year": 2005, "osm_id": "relation/16818714"}}, {"type": "Feature", "geometry": {"type": "Point", "coordinates": [16.650036, 48.430823]}, "properties": {"name": "Windpark Gro\u00df Schweinbarth", "fuel": "Wind", "capacity_mw": 12.6, "owner": "PROFES", "commissioning_year": 2021, "osm_id": "relation/16818752"}}, {"type": "Feature", "geometry": {"type": "Point", "coordinates": [16.665884, 48.428936]}, "properties": {"name": "Windpark Matzen/Klein-Harras II", "fuel": "Wind", "capacity_mw": 12.6, "owner": "WEB Windenergie", "commissioning_year": 2022, "osm_id": "relation/16818753"}}, {"type": "Feature", "geometry": {"type": "Point", "coordinates": [16.652718, 48.437282]}, "properties": {"name": "Windpark Matzen/Klein-Harras I", "fuel": "Wind", "capacity_mw": 14.0, "owner": "WEB Windenergie", "commissioning_year": 2013, "osm_id": "relation/16818754"}}, {"type": "Feature", "geometry": {"type": "Point", "coordinates": [16.733731, 48.363249]}, "properties": {"name": "Windpark G\u00e4nserndorf Nord", "fuel": "Wind", "capacity_mw": 10.0, "owner": "EVN Naturkraft", "commissioning_year": 2006, "osm_id": "relation/16818797"}}, {"type": "Feature", "geometry": {"type": "Point", "coordinates": [16.760094, 48.657522]}, "properties": {"name": "Windpark Gro\u00dfkrut-Altlichtenwarth", "fuel": "Wind", "capacity_mw": 24.8, "owner": "EVN;ImWind", "commissioning_year": 2024, "osm_id": "relation/17776441"}}, {"type": "Feature", "geometry": {"type": "Point", "coordinates": [13.033908, 47.827419]}, "properties": {"name": "Heizkraftwerk Salzburg Nord", "fuel": "Gas", "capacity_mw": 13.5, "owner": "Salzburg AG", "commissioning_year": null, "osm_id": "relation/17919524"}}, {"type": "Feature", "geometry": {"type": "Point", "coordinates": [16.752536, 48.409289]}, "properties": {"name": "Windpark Prottes II", "fuel": "Wind", "capacity_mw": 18.0, "owner": "EVN", "commissioning_year": null, "osm_id": "relation/18115537"}}, {"type": "Feature", "geometry": {"type": "Point", "coordinates": [15.058929, 46.923267]}, "properties": {"name": "Windpark Freil\u00e4nderalm 2", "fuel": "Wind", "capacity_mw": 105.0, "owner": "", "commissioning_year": null, "osm_id": "relation/19652405"}}, {"type": "Feature", "geometry": {"type": "Point", "coordinates": [16.107113, 47.726213]}, "properties": {"name": "Sonnenkraftwerk Peisching", "fuel": "Solar", "capacity_mw": 10.0, "owner": "EVN", "commissioning_year": 2025, "osm_id": "relation/20360254"}}, {"type": "Feature", "geometry": {"type": "Point", "coordinates": [15.768989, 48.421946]}, "properties": {"name": "", "fuel": "Solar", "capacity_mw": 24.5, "owner": "", "commissioning_year": null, "osm_id": "relation/20455655"}}, {"type": "Feature", "geometry": {"type": "Point", "coordinates": [16.371695, 48.165219]}, "properties": {"name": "", "fuel": "Solar", "capacity_mw": 255.0, "owner": "Wien Energie", "commissioning_year": null, "osm_id": "node/5199998365"}}, {"type": "Feature", "geometry": {"type": "Point", "coordinates": [16.310132, 48.128304]}, "properties": {"name": "B\u00fcrgerInnen Solarkraftwerk- Park&Ride-Anlage Siebenhirten", "fuel": "Solar", "capacity_mw": 132.0, "owner": "Wien Energie", "commissioning_year": 2014, "osm_id": "node/5200203619"}}, {"type": "Feature", "geometry": {"type": "Point", "coordinates": [10.47766, 46.904935]}, "properties": {"name": "Dotierkraftwerk (GKI)", "fuel": "Hydro", "capacity_mw": 9.4, "owner": "", "commissioning_year": null, "osm_id": "node/6655843889"}}, {"type": "Feature", "geometry": {"type": "Point", "coordinates": [12.221383, 47.282712]}, "properties": {"name": "", "fuel": "Hydro", "capacity_mw": 5.07, "owner": "Salzburg AG", "commissioning_year": 2005, "osm_id": "node/8287044720"}}, {"type": "Feature", "geometry": {"type": "Point", "coordinates": [11.003749, 47.195605]}, "properties": {"name": "Kraftwerk K\u00fchtai 2", "fuel": "Pumped Storage", "capacity_mw": 130.0, "owner": "Tiroler Wasserkraft AG", "commissioning_year": 2026, "osm_id": "node/9870973929"}}, {"type": "Feature", "geometry": {"type": "Point", "coordinates": [11.405249, 47.2507]}, "properties": {"name": "Kraftwerk Untere Sill", "fuel": "Hydro", "capacity_mw": 28.0, "owner": "IKB AG", "commissioning_year": 1966, "osm_id": "way/32488079"}}, {"type": "Feature", "geometry": {"type": "Point", "coordinates": [11.449225, 47.145575]}, "properties": {"name": "Brennerwerk", "fuel": "Hydro", "capacity_mw": 7.7, "owner": "TIWAG", "commissioning_year": 1899, "osm_id": "way/32590665"}}, {"type": "Feature", "geometry": {"type": "Point", "coordinates": [9.945443, 47.132832]}, "properties": {"name": "Kraftwerk Braz", "fuel": "Hydro", "capacity_mw": 20.0, "owner": "\u00d6BB", "commissioning_year": null, "osm_id": "way/119877457"}}, {"type": "Feature", "geometry": {"type": "Point", "coordinates": [13.589505, 48.01076]}, "properties": {"name": "Biomassekraftwerk Timelkam", "fuel": "Biomass", "capacity_mw": 15.0, "owner": "", "commissioning_year": null, "osm_id": "way/134199817"}}, {"type": "Feature", "geometry": {"type": "Point", "coordinates": [16.432264, 48.181177]}, "properties": {"name": "Block 1", "fuel": "Gas", "capacity_mw": 710.0, "owner": "Wien Energie GmbH", "commissioning_year": null, "osm_id": "way/138407028"}}, {"type": "Feature", "geometry": {"type": "Point", "coordinates": [9.920741, 47.081866]}, "properties": {"name": "Litzwerk", "fuel": "Hydro", "capacity_mw": 5.6, "owner": "Montafonerbahn AG", "commissioning_year": null, "osm_id": "way/206409799"}}, {"type": "Feature", "geometry": {"type": "Point", "coordinates": [16.476444, 48.261531]}, "properties": {"name": "", "fuel": "Gas", "capacity_mw": 6.0, "owner": "", "commissioning_year": 1994, "osm_id": "way/218466975"}}, {"type": "Feature", "geometry": {"type": "Point", "coordinates": [12.831504, 47.209591]}, "properties": {"name": "Kraftwerk B\u00e4renwerk", "fuel": "Hydro", "capacity_mw": 14.0, "owner": "SalzburgAG", "commissioning_year": 1924, "osm_id": "way/227502171"}}, {"type": "Feature", "geometry": {"type": "Point", "coordinates": [13.033584, 47.821488]}, "properties": {"name": "Kraftwerk Sohlstufe Lehen", "fuel": "Hydro", "capacity_mw": 13.7, "owner": "Salzburg AG", "commissioning_year": null, "osm_id": "way/263245910"}}, {"type": "Feature", "geometry": {"type": "Point", "coordinates": [15.924767, 48.326748]}, "properties": {"name": "Kraftwerk D\u00fcrnrohr", "fuel": "Gas", "capacity_mw": 352.0, "owner": "VERBUND Austrian Thermal Power AG;EVN AG", "commissioning_year": null, "osm_id": "way/296169918"}}, {"type": "Feature", "geometry": {"type": "Point", "coordinates": [9.556515, 47.295811]}, "properties": {"name": "Kraftwerk Illspitz", "fuel": "Hydro", "capacity_mw": 7.0, "owner": "Stadtwerke Feldkirch", "commissioning_year": 2014, "osm_id": "way/311201083"}}, {"type": "Feature", "geometry": {"type": "Point", "coordinates": [13.288328, 46.604498]}, "properties": {"name": "Kraftwerk Tr\u00f6polach", "fuel": "Hydro", "capacity_mw": 8.8, "owner": "KELAG", "commissioning_year": 2014, "osm_id": "way/324217039"}}, {"type": "Feature", "geometry": {"type": "Point", "coordinates": [14.456701, 48.063074]}, "properties": {"name": "Biomasseheizkraftwerk Steyr", "fuel": "Biomass", "capacity_mw": 5.7, "owner": "", "commissioning_year": null, "osm_id": "way/380981350"}}, {"type": "Feature", "geometry": {"type": "Point", "coordinates": [15.931218, 48.326302]}, "properties": {"name": "M\u00fcllverbrennungsanlage D\u00fcrnrohr", "fuel": "Waste", "capacity_mw": 210.0, "owner": "EVN Abfallverwertung N\u00d6", "commissioning_year": null, "osm_id": "way/500323562"}}, {"type": "Feature", "geometry": {"type": "Point", "coordinates": [12.412445, 47.266893]}, "properties": {"name": "Kraftwerk Hollersbach", "fuel": "Hydro", "capacity_mw": 5.35, "owner": "Salzburg AG", "commissioning_year": 1949, "osm_id": "way/568764688"}}, {"type": "Feature", "geometry": {"type": "Point", "coordinates": [11.741654, 47.374956]}, "properties": {"name": "Solarpark Stans", "fuel": "Solar", "capacity_mw": 12000.0, "owner": "GEG \u00d6kostrom GmbH Schwaz", "commissioning_year": 2023, "osm_id": "way/1148463931"}}, {"type": "Feature", "geometry": {"type": "Point", "coordinates": [14.89295, 47.525187]}, "properties": {"name": "Energy3000", "fuel": "Solar", "capacity_mw": 7.7, "owner": "", "commissioning_year": null, "osm_id": "way/1381210439"}}, {"type": "Feature", "geometry": {"type": "Point", "coordinates": [14.463278, 48.067171]}, "properties": {"name": "BHKW Ramingdorf", "fuel": "Biomass", "capacity_mw": 5.7, "owner": "Bioenergie Steyr GmbH", "commissioning_year": null, "osm_id": "csv/fwkwk"}}, {"type": "Feature", "geometry": {"type": "Point", "coordinates": [16.233333, 48.016667]}, "properties": {"name": "Biomasse KWK M\u00f6dling", "fuel": "Biomass", "capacity_mw": 5.0, "owner": "EVN W\u00e4rme GmbH", "commissioning_year": null, "osm_id": "csv/fwkwk"}}, {"type": "Feature", "geometry": {"type": "Point", "coordinates": [16.283333, 48.083333]}, "properties": {"name": "Biomasse KWK Ybbs", "fuel": "Biomass", "capacity_mw": 7.5, "owner": "Biomasse Heizkraftwerk Ybbs GmbH", "commissioning_year": null, "osm_id": "csv/fwkwk"}}, {"type": "Feature", "geometry": {"type": "Point", "coordinates": [14.40713, 46.656004]}, "properties": {"name": "FHKW Klagenfurt", "fuel": "Oil", "capacity_mw": 34.0, "owner": "Stadtwerke Klagenfurt", "commissioning_year": null, "osm_id": "csv/fwkwk"}}, {"type": "Feature", "geometry": {"type": "Point", "coordinates": [15.45, 47.066667]}, "properties": {"name": "FHKW Thondorf", "fuel": "Oil", "capacity_mw": 25.0, "owner": "Energie Steiermark W\u00e4rme GmbH", "commissioning_year": null, "osm_id": "csv/fwkwk"}}, {"type": "Feature", "geometry": {"type": "Point", "coordinates": [14.90712, 48.72194]}, "properties": {"name": "HW-Biomasse-Altweitra", "fuel": "Biomass", "capacity_mw": 5.0, "owner": "NAWARO ENERGIE", "commissioning_year": null, "osm_id": "csv/fwkwk"}}, {"type": "Feature", "geometry": {"type": "Point", "coordinates": [11.857543, 47.342936]}, "properties": {"name": "HW-Biomasse-F\u00fcgen", "fuel": "Biomass", "capacity_mw": 8.76, "owner": "Fa. Binder-Holz F\u00fcgen", "commissioning_year": null, "osm_id": "csv/fwkwk"}}, {"type": "Feature", "geometry": {"type": "Point", "coordinates": [16.2605, 46.98921]}, "properties": {"name": "HW-Biomasse-Heiligenkreuz im Lafnitztal", "fuel": "Biomass", "capacity_mw": 10.0, "owner": "Lenzing AG", "commissioning_year": null, "osm_id": "csv/fwkwk"}}, {"type": "Feature", "geometry": {"type": "Point", "coordinates": [15.33191, 48.57533]}, "properties": {"name": "HKW Rastenfeld", "fuel": "Biomass", "capacity_mw": 5.0, "owner": "NAWARO ENERGIE", "commissioning_year": null, "osm_id": "csv/fwkwk"}}, {"type": "Feature", "geometry": {"type": "Point", "coordinates": [13.347889, 46.821527]}, "properties": {"name": "HW-Biomasse-Sachsenberg", "fuel": "Biomass", "capacity_mw": 6.7, "owner": "Hasslacher Energie GmbH", "commissioning_year": null, "osm_id": "csv/fwkwk"}}, {"type": "Feature", "geometry": {"type": "Point", "coordinates": [14.16605, 47.91171]}, "properties": {"name": "Kirchdorf BHKW", "fuel": "Gas", "capacity_mw": 13.2, "owner": "Energie AG Ober\u00f6sterreich", "commissioning_year": null, "osm_id": "csv/fwkwk"}}, {"type": "Feature", "geometry": {"type": "Point", "coordinates": [15.701, 48.3939]}, "properties": {"name": "Thei\u00df B", "fuel": "Gas", "capacity_mw": 485.0, "owner": "EVN W\u00e4rme GmbH", "commissioning_year": null, "osm_id": "csv/fwkwk"}}, {"type": "Feature", "geometry": {"type": "Point", "coordinates": [16.928223, 47.977959]}, "properties": {"name": "1010021", "fuel": "Wind", "capacity_mw": 1251.85, "owner": "Verbund", "commissioning_year": null, "osm_id": "node/266317423"}}, {"type": "Feature", "geometry": {"type": "Point", "coordinates": [16.651164, 48.322937]}, "properties": {"name": "14209", "fuel": "Wind", "capacity_mw": 174.4, "owner": "WEB Windenergie AG", "commissioning_year": null, "osm_id": "node/278209484"}}, {"type": "Feature", "geometry": {"type": "Point", "coordinates": [16.456351, 48.504602]}, "properties": {"name": "", "fuel": "Wind", "capacity_mw": 64.3, "owner": "", "commissioning_year": null, "osm_id": "node/281563066"}}, {"type": "Feature", "geometry": {"type": "Point", "coordinates": [15.681026, 48.241862]}, "properties": {"name": "Oberwagram 3", "fuel": "Wind", "capacity_mw": 61.72, "owner": "EVN Naturkraft", "commissioning_year": null, "osm_id": "node/310828410"}}, {"type": "Feature", "geometry": {"type": "Point", "coordinates": [16.7032, 48.564943]}, "properties": {"name": "Kraftwerk G\u00f6tzendorf", "fuel": "Wind", "capacity_mw": 364.58, "owner": "EVN Naturkraft", "commissioning_year": null, "osm_id": "node/419313514"}}, {"type": "Feature", "geometry": {"type": "Point", "coordinates": [15.445054, 48.173079]}, "properties": {"name": "", "fuel": "Wind", "capacity_mw": 16.7, "owner": "WIH Windpark GmbH&CoKG", "commissioning_year": null, "osm_id": "node/671191566"}}, {"type": "Feature", "geometry": {"type": "Point", "coordinates": [15.176272, 48.516533]}, "properties": {"name": "", "fuel": "Wind", "capacity_mw": 12.92, "owner": "WEB Windenergie", "commissioning_year": null, "osm_id": "node/824299355"}}, {"type": "Feature", "geometry": {"type": "Point", "coordinates": [16.413642, 47.763802]}, "properties": {"name": "Sigle\u00df 5", "fuel": "Wind", "capacity_mw": 21.85, "owner": "W.E.B.", "commissioning_year": null, "osm_id": "node/1225273901"}}, {"type": "Feature", "geometry": {"type": "Point", "coordinates": [16.648966, 47.568462]}, "properties": {"name": "", "fuel": "Wind", "capacity_mw": 35.15, "owner": "ContourGlobal", "commissioning_year": null, "osm_id": "node/1562890233"}}, {"type": "Feature", "geometry": {"type": "Point", "coordinates": [16.365495, 47.949104]}, "properties": {"name": "WKA 1", "fuel": "Wind", "capacity_mw": 106.9, "owner": "evn naturkraft", "commissioning_year": null, "osm_id": "node/1600740336"}}, {"type": "Feature", "geometry": {"type": "Point", "coordinates": [15.733565, 47.549142]}, "properties": {"name": "", "fuel": "Wind", "capacity_mw": 29.5, "owner": "\u00d6sterreichische Bundesforste", "commissioning_year": null, "osm_id": "node/1831715035"}}, {"type": "Feature", "geometry": {"type": "Point", "coordinates": [13.243143, 48.055089]}, "properties": {"name": "Windpark Munderfing GmbH", "fuel": "Wind", "capacity_mw": 18.0, "owner": "", "commissioning_year": null, "osm_id": "node/2804179290"}}, {"type": "Feature", "geometry": {"type": "Point", "coordinates": [15.544761, 47.489884]}, "properties": {"name": "Windenergieanlage 9", "fuel": "Wind", "capacity_mw": 18.45, "owner": "Windheimat GmbH", "commissioning_year": null, "osm_id": "node/2906431235"}}, {"type": "Feature", "geometry": {"type": "Point", "coordinates": [15.059786, 46.913912]}, "properties": {"name": "", "fuel": "Wind", "capacity_mw": 56.0, "owner": "Energie Steiermark", "commissioning_year": null, "osm_id": "node/3045914254"}}, {"type": "Feature", "geometry": {"type": "Point", "coordinates": [16.33162, 48.518432]}, "properties": {"name": "WEA SF 1", "fuel": "Wind", "capacity_mw": 9.6, "owner": "Windkraft Simonsfeld", "commissioning_year": null, "osm_id": "node/3806336765"}}, {"type": "Feature", "geometry": {"type": "Point", "coordinates": [16.525441, 47.744105]}, "properties": {"name": "", "fuel": "Wind", "capacity_mw": 24.0, "owner": "Energie Burgenland AG", "commissioning_year": null, "osm_id": "node/4770111236"}}, {"type": "Feature", "geometry": {"type": "Point", "coordinates": [15.029174, 46.844295]}, "properties": {"name": "", "fuel": "Wind", "capacity_mw": 39.0, "owner": "Energie Steiermark", "commissioning_year": null, "osm_id": "node/4933266326"}}, {"type": "Feature", "geometry": {"type": "Point", "coordinates": [16.519873, 47.954689]}, "properties": {"name": "SEI2", "fuel": "Wind", "capacity_mw": 21.0, "owner": "", "commissioning_year": null, "osm_id": "node/6611923464"}}, {"type": "Feature", "geometry": {"type": "Point", "coordinates": [15.588664, 47.427493]}, "properties": {"name": "", "fuel": "Wind", "capacity_mw": 17.25, "owner": "", "commissioning_year": null, "osm_id": "node/6767136560"}}, {"type": "Feature", "geometry": {"type": "Point", "coordinates": [15.853505, 47.505077]}, "properties": {"name": "", "fuel": "Wind", "capacity_mw": 19.8, "owner": "", "commissioning_year": null, "osm_id": "node/6814458603"}}, {"type": "Feature", "geometry": {"type": "Point", "coordinates": [15.010894, 46.730585]}, "properties": {"name": "", "fuel": "Wind", "capacity_mw": 19.8, "owner": "brandpower S2 GmbH. (KELAG)", "commissioning_year": null, "osm_id": "node/9111675477"}}, {"type": "Feature", "geometry": {"type": "Point", "coordinates": [15.009822, 46.660714]}, "properties": {"name": "", "fuel": "Wind", "capacity_mw": 6.6, "owner": "", "commissioning_year": null, "osm_id": "node/9732739340"}}]}